name,address,latitude,longitude,loc_rating,rating
COMPLETE HOST Fitzroy St Apartments,"163 Fitzroy St, 3182 Melbourne, Australia",-37.8588437,144.9798363,9.5,9
Crown Metropol Melbourne,"8 Whiteman Street, Southbank, 3006 Melbourne, Australia",-37.8234367,144.9580861,9.2,8.9
Studio# at Eporo,"285 La Trobe Street, 3000 Melbourne, Australia",-37.8107078,144.9608101,9.3,8.8
PARKROYAL Melbourne Airport,"Arrivals Drive, Tullamarine, 3042 Melbourne, Australia",-37.6721745,144.8503119,9.5,8.6
Wyndel Apartments - St Kilda Views,"470 St Kilda Road, 3004 Melbourne, Australia",-37.8412822,144.9765221,9.2,9.1
Wyndel Apartments - Southbank Views,"50 Haig Street, Southbank, Southbank, 3006 Melbourne, Australia",-37.826844,144.9568385,9.5,9.3
Best Western Melbourne Airport,"33 Ardlie Street, Attwood, Tullamarine, 3049 Melbourne, Australia",-37.673376,144.8876904,8.4,8.5
Ciloms Airport Lodge,"398 Melrose Drive, Tullamarine, Tullamarine, 3043 Melbourne, Australia",-37.686649,144.868447,8.7,8.2
Brilliant Victoria Harbour Waterfront,"883 Collins Street, Docklands, 3008 Melbourne, Australia",-37.8211211,144.9425286,9.3,8.8
Southbank Apartments 28 Southgate,"28 Southgate Avenue, Southbank, Southbank, 3006 Melbourne, Australia",-37.8206451,144.967594,9.5,8.8
Perfect Sea View Apartment,"677 La Trobe Street, Docklands, 3008 Melbourne, Australia",-37.8148083,144.9472522,9.5,8
AKOM Prahran,"33 Grattan street, Prahran, 3181 Melbourne, Australia",-37.8467911,144.9913888,9.1,8.8
Royal Stays Apartments - Clarendon St,"109 Clarendon Street, Southbank, 3006 Melbourne, Australia",-37.827753,144.9584141,9,8.1
Manhattan Apartment,"33 Rose Lane, 3000 Melbourne, Australia",-37.8150102,144.9540997,9.2,8.8
DoubleTree by Hilton Melbourne,"270 Flinders Street, 3000 Melbourne, Australia",-37.8177379,144.9653744,9.2,8.5
Mono Apartments on Franklin Street,"243-263 Franklin Street, 3000 Melbourne, Australia",-37.8095502,144.9566201,8.8,8.3
Melbourne Metropole Central,"44 Brunswick Street, Fitzroy, 3065 Melbourne, Australia",-37.8063366,144.9776409,9.1,8.5
Pride Fawkner Apartments,"499 Saint Kilda Road, 3004 Melbourne, Australia",-37.8431329,144.9793406,9.1,8.3
"Hazel, CBD Apartments","325 Collins Street, 3000 Melbourne, Australia",-37.8166442,144.9635498,9.8,9.2
Quality Hotel Batman's Hill on Collins,"623 Collins Street, 3000 Melbourne, Australia",-37.8192864,144.9547208,9.2,8.3
Mono Apartments on La Trobe Street,"315-327 La Trobe st, 3000 Melbourne, Australia",-37.8108745,144.9599591,9.4,8.6
Orange Stay Apartments,"889 Collins Street, Docklands, 3008 Melbourne, Australia",-37.8208882,144.9416138,8.8,8.3
Cloud9 Luxury Apartments,"241 City Road, Southbank, 3008 Melbourne, Australia",-37.8265171,144.960065,9.2,8.2
Mercure Melbourne Treasury Gardens,"13 Spring Street, 3000 Melbourne, Australia",-37.8147785,144.9743922,9,8.4
Rydges On Swanston,"701 Swanston St, Carlton, 3053 Melbourne, Australia",-37.8014616,144.9635498,8.6,8.1
Mantra Tullamarine Hotel,"Corner Melrose & Trade Park Drive, Tullamarine, Tullamarine, 3043 Melbourne, Australia",-37.6941166,144.8753914,8.5,8.4
Royal Stays Apartments Melbourne- Clarke St,"58 Clarke St, Southbank, 3108 Melbourne, Australia",-37.8278376,144.9593337,8.9,8.4
Melbourne Empire Apartments,"81 A'Beckett Street, 3000 Melbourne, Australia",-37.809322,144.961332,9.3,8.7
Mercure Melbourne Albert Park,"65 Queens Road, Albert Park, 3004 Melbourne, Australia",-37.8499725,144.9787643,8.4,8.2
Four Points by Sheraton Melbourne Docklands,"443 Docklands Drive , Docklands, 3008 Melbourne, Australia",-37.8150926,144.9380412,8.6,8.8
Stay Like Home,"108 Flinders Street, 3000 Melbourne, Australia",-37.81615,144.9711221,9.7,9.1
District South Yarra,"10 Claremont St, South Yarra, 3141 Melbourne, Australia",-37.8380283,144.9939723,9.2,8.8
Rendezvous Hotel Melbourne,"328 Flinders Street, 3000 Melbourne, Australia",-37.8182207,144.9634637,9.1,8.3
Quest Grand Hotel Melbourne,"33 Spencer Street, 3000 Melbourne, Australia",-37.8203554,144.9543865,9.3,8.8
Apartments @ 350 William,"350 William Street, 3000 Melbourne, Australia",-37.8112464,144.9566068,9.1,8.5
Causeway 353 Hotel,"353 Little Collins Street, 3000 Melbourne, Australia",-37.8155661,144.9629631,9.2,8.3
Atlantis Hotel Melbourne,"300 Spencer Street, 3000 Melbourne, Australia",-37.8136001,144.951956,9,8.5
Oaks On Lonsdale,"23 Lonsdale Street, 3000 Melbourne, Australia",-37.8098306,144.9714035,8.8,8.3
Garden Cottage St Kilda,"188 Barkly Street, 3182 Melbourne, Australia",-37.8690511,144.9809917,9.7,9.8
Collingwood Cribs,"51 Napoleon Street 401, Collingwood, 3066 Melbourne, Australia",-37.8015954,144.9864554,9.2,8.6
United Backpackers,"250 Flinders Street, 3000 Melbourne, Australia",-37.8176865,144.9660558,9.3,8.3
Wyndel Apartments - Riverside On Collins,"883 Collins Street, Docklands, 3008 Melbourne, Australia",-37.8211211,144.9425286,9.6,9.4
BEST WESTERN PLUS Travel Inn,"Cnr. Grattan & Drummond Streets, Carlton, 3053 Melbourne, Australia",-37.8009101,144.9684852,8.9,8.4
Holiday Inn Melbourne Airport,"10-14 Centre Road, Tullamarine, 3045 Melbourne, Australia",-37.6717864,144.8532656,9,8.4
Crowne Plaza Melbourne,"1 - 5 Spencer Street, 3008 Melbourne, Australia",-37.8228353,144.9551136,9.1,8.5
Holiday Inn Melbourne on Flinders,"575 Flinders Lane, 3000 Melbourne, Australia",-37.820261,144.9552898,9.1,8.8
Airlie - 2 Bedroom House,"66 Airlie Street, South Yarra, 3141 Melbourne, Australia",-37.8313402,144.9872499,9.6,9.2
Sky City Serviced Apartment,"No. 568 Collins Street, 3000 Melbourne, Australia",-37.8183759,144.9554361,9.2,8.3
Rydges St Kilda,"35-37 Fitzroy Street, 3182 Melbourne, Australia",-37.861916,144.9747918,8.5,8
Punthill South Yarra Grand,"5-7 Yarra Street, South Yarra, 3141 Melbourne, Australia",-37.838064,144.992681,9.1,8.7
Spencer Street Apartments,"392 Spencer Street, West Melbourne, 3003 Melbourne, Australia",-37.8112852,144.9506565,8.8,9.1
HFN Crown Shadow Play Apartment,"3612/105 Clarendon st southbank, Southbank, 3006 Melbourne, Australia",-37.827096,144.9581235,9.1,8.6
Travelodge Hotel Melbourne Southbank,"Corner Southgate Avenue & Riverside Quay, Southbank, 3006 Melbourne, Australia",-37.8212704,144.9653156,9.5,8.5
Mercure North Melbourne,"Corner Flemington Road & Harker Street, North Melbourne, 3051 Melbourne, Australia",-37.796755,144.9510935,8.5,8
Mantra City Central,"318 Little Bourke Street, 3000 Melbourne, Australia",-37.8129327,144.963098,9.2,8.1
ibis Melbourne Swanston Street Hotel,"609 Swanston Street, Carlton, 3053 Melbourne, Australia",-37.8040091,144.9629905,8.3,8
"Hyatt Place Melbourne, Essendon Fields","1 English Street, 3041 Melbourne, Australia",-37.7247996,144.8928714,8.5,8.8
"Water views, Lovely 2BRs, free tram zone, close to everything!","463 Docklands Drive, Docklands, 3008 Melbourne, Australia",-37.8151404,144.9372909,9.4,9.3
Mantra 100 Exhibition,"100 Exhibition Street, 3000 Melbourne, Australia",-37.8133472,144.9714663,9,8.3
Winston Apartments,"568 Collins Street, 3000 Melbourne, Australia",-37.8183759,144.9554361,9.1,8.4
Pride Fawkner Apartments Bay-view (LXII),"499 Saint Kilda Road, 3004 Melbourne, Australia",-37.8431329,144.9793406,10,9.6
Quest Flemington Central,"1 Ascot Vale Road, Flemington , 3031 Melbourne, Australia",-37.7867363,144.9211832,8.6,8.9
Grand Hyatt Melbourne,"123 Collins Street, 3000 Melbourne, Australia",-37.8152145,144.9700836,9.5,8.9
Novotel Melbourne On Collins,"270 Collins Street, 3000 Melbourne, Australia",-37.8156191,144.9647759,9.3,8.4
The Eminence Carlton,"145 Queensberry Street, Carlton, 3053 Melbourne, Australia",-37.8049139,144.9639284,9.5,9.1
PrivateStudio in Quay West Building,"26 Southgate Avenue, Southbank, 3006 Melbourne, Australia",-37.8204479,144.9671207,9.9,9.7
Novotel Melbourne South Wharf,"7 Convention Centre Place, Southbank, 3006 Melbourne, Australia",-37.8255051,144.9499987,9.4,9.3
AKOM Melbourne,"36 La Trobe Street, 3000 Melbourne, Australia",-37.8082574,144.9676359,9,8.4
Stylish Apartment+Netflix,"888 Collins Street 506, Docklands, 3008 Melbourne, Australia",-37.8205169,144.9422993,9.5,9.5
The Langham Melbourne,"1 Southgate Avenue, Southbank, 3006 Melbourne, Australia",-37.8204542,144.9657017,9.6,9.3
Avani Central Melbourne Residences,"60 A®πBeckett Street, 3000 Melbourne, Australia",-37.8087405,144.9614497,9.3,9
Docklands Private Collection - Digital Harbour,"7/198 Harbour Esplanade, Docklands, 3008 Melbourne, Australia",-37.8139288,144.944923,9.3,8.7
Travelodge Hotel Melbourne Docklands,"66 Aurora Lane, Docklands, 3008 Melbourne, Australia",-37.8184097,144.9499226,8.9,8.5
Punthill Apartment Hotel - Flinders Lane,"267 Flinders Lane, 3000 Melbourne, Australia",-37.8170824,144.9654877,9.5,8.7
Punthill Apartment Hotel - Manhattan,"57 Flinders Lane, 3000 Melbourne, Australia",-37.8149825,144.9728432,9.3,8.6
Cosmopolitan Hotel Melbourne,"2 - 8 Carlisle Street, 3182 Melbourne, Australia",-37.8667656,144.9791817,9,8.3
Flinders St Apartments @ Fed Square,"238 Flinders Street , 3000 Melbourne, Australia",-37.8173927,144.9663866,9.8,9.2
Eporo - Central Apartments,"285 La Trobe Street, 3000 Melbourne, Australia",-37.8107078,144.9608101,9.6,9.1
Melbourne Short Stay at SouthbankONE,"180 City Road, Southbank, Southbank, 3006 Melbourne, Australia",-37.8240013,144.9620001,8.9,8.4
The Victoria Hotel,"215 Little Collins Street, 3000 Melbourne, Australia",-37.8143003,144.9670981,9.4,8.5
Corporate Keys - Freshwater Place,"1 Freshwater Place, Southbank, 3006 Melbourne, Australia",-37.8217362,144.962136,9.5,8.8
Apartments @ 23 Lonsdale,"23-33 Lonsdale Street, 3000 Melbourne, Australia",-37.8098519,144.9713913,9.4,8.7
Imagine Lighthouse,"442 - 450 Elizabeth Street, 3000 Melbourne, Australia",-37.8082901,144.9608489,9.2,8.8
UrbanSuite The Wild Rosa Inn,"38 Rose Lane, 3000 Melbourne, Australia",-37.8148892,144.9542038,9.7,9.4
AKOM Docklands,"26 Rakaia Way , Docklands, 3008 Melbourne, Australia",-37.8145392,144.9414692,9,8.4
Orange Stay Townhouses,"6 Buckley Walk, Docklands, 3008 Melbourne, Australia",-37.8197868,144.9450975,9.2,8.9
Melbourne Short Stay Apartments,"187 City Road, Southbank, 3006 Melbourne, Australia",-37.8250629,144.9617704,8.6,8.6
Rose Lane Serviced Apartment,"220 Spencer Street, 3000 Melbourne, Australia",-37.8156694,144.952988,9.3,8.7
Jasper Hotel,"489 Elizabeth Street, 3000 Melbourne, Australia",-37.8074904,144.9597627,8.9,8.4
City Square Motel,"67 Swanston Street, 3000 Melbourne, Australia",-37.816032,144.9664754,9.4,8.4
Northbank Residences by Apartments of Melbourne,"565 Flinders Street , 3000 Melbourne, Australia",-37.8211278,144.9558983,8.7,8.4
Melbourne Short Stay Apartments on Lonsdale,"618 Lonsdale Street, 3000 Melbourne, Australia",-37.8143198,144.9539133,9,8.9
Imagine Marco,"42-48 Balston Street, Southbank, 3006 Melbourne, Australia",-37.8266084,144.9627306,8.3,8.6
Adina Apartment Hotel Melbourne Flinders Street,"88 Flinders Street, 3000 Melbourne, Australia",-37.8159622,144.9717981,9.2,8.7
Winston Apartments Docklands,"883-889 Collins Street, Docklands, 3008 Melbourne, Australia",-37.8211211,144.9425286,8.9,8.5
InterContinental Melbourne The Rialto,"495 Collins Street, 3000 Melbourne, Australia",-37.818889,144.958333,9.1,8.9
Radisson On Flagstaff Gardens Melbourne,"380 William Street, Melbourne, Victoria 3000, Australia, 3000 Melbourne, Australia",-37.8102736,144.9561287,9,8.9
Melbourne SkyHigh Apartments,"568 Collins Street, 3000 Melbourne, Australia",-37.8183759,144.9554361,9.1,8.3
ibis Melbourne Hotel and Apartments,"15 - 21 Therry Street, 3000 Melbourne, Australia",-37.8070768,144.9613961,8.7,8.2
Easystay Studio Apartments,"63 Fitzroy Street, 3182 Melbourne, Australia",-37.8611337,144.9755755,8.4,8.1
City Limits Hotel Apartments,"20-22 Little Bourke St, 3000 Melbourne, Australia",-37.8104831,144.9718004,9.4,8.9
Melbourne Holiday Apartments Southbank,"1 Freshwater Place Melbourne, Southbank, 3000 Melbourne, Australia",-37.8217362,144.962136,9.8,9.5
New Boutique Apartment Abode 515,"108 Flinders Street, 3000 Melbourne, Australia",-37.81615,144.9711221,9.7,9.5
Southbank Apartments Eureka,"7 Riverside Quay, Southbank, Southbank, 3006 Melbourne, Australia",-37.8213341,144.9646982,9.5,8.9
QT Melbourne,"133 Russell Street, 3000 Melbourne, Australia",-37.8133721,144.9679842,9.6,9.3
Docklands Executive Apartments - Melbourne,"8 Waterview Walk, , Docklands, 3008 Melbourne, Australia",-37.8196989,144.9481307,9.5,9.5
Fawkner Apartment 1B1B - 8,"499 St Kilda Rd, Melbourne, Victoria, Australia, 3004 Melbourne, Australia",-37.8431329,144.9793406,9.8,9.3
Punthill Ivanhoe,"21 Bell Street, 3079 Melbourne, Australia",-37.7545558,145.0555167,8.4,8.8
City Edge North Melbourne Apartment Hotel,"188 Peel Street, North Melbourne, 3051 Melbourne, Australia",-37.8032321,144.9567684,8.7,8.2
Adara St Kilda,"135 Inkerman Street, 3182 Melbourne, Australia",-37.8650204,144.9876674,8.3,8.2
Playhouse Apartments,"20 Shamrock Street, 3067 Melbourne, Australia",-37.8098262,145.008161,8.4,8.7
Premier Stays Melbourne,"50 Haig Street, Southbank, 3006 Melbourne, Australia",-37.826844,144.9568385,9.6,9.3
Bayview Eden Melbourne,"6 Queens Road, Albert Park, 3004 Melbourne, Australia",-37.8373884,144.974134,8.5,8.6
Melbourne Short Stay Apartments MP Deluxe,"241 City Road, Southbank, 3006 Melbourne, Australia",-37.8265171,144.960065,8.7,8.4
Platinum City Serviced Apartments,"327 La Trobe Street, 3000 Melbourne, Australia",-37.8109622,144.959802,8.9,8.3
Melbourne Vacation Rentals Apartment,"173 City Road, Southbank, 3006 Melbourne, Australia",-37.824628,144.9623452,9,8.8
Adina Apartment Hotel St Kilda Melbourne,"157 Fitzroy Street, 3182 Melbourne, Australia",-37.8588997,144.9794697,9,8.5
Seasons Botanic Gardens,"348 St Kilda Road, South Melbourne, 3004 Melbourne, Australia",-37.8309509,144.9708639,8.9,8.4
Aura on Flinders Serviced Apartments,"534 Flinders Street (Enter via 7 Katherine Pl), 3000 Melbourne, Australia",-37.8202635,144.9563591,8.9,8.3
Nest-Apartment on Rose Lane,"Rose Lane, 3000 Melbourne, Australia",-37.8152243,144.9541591,9.2,8.5
Urban Modern Apartments,"568 Collin Street, 3000 Melbourne, Australia",-37.8183759,144.9554361,9.2,8.6
Nest-Apartments Sea View Apartments,"220 Spencer St., 3000 Melbourne, Australia",-37.8156694,144.952988,9.2,8.5
HFN Riverside Docklands Apartment,"8 Pearl River Road, Docklands, 3008 Melbourne, Australia",-37.8155523,144.9379982,8.8,8
ibis Melbourne Central,"399 Little Lonsdale Street, 3000 Melbourne, Australia",-37.8120449,144.960108,9.3,9
Best Western Melbourne City,"16 Spencer Street, 3000 Melbourne, Australia",-37.8204799,144.9552898,9.2,8.4
Amazing Accommodations: Vogue,"27-35 Malcolm Street, South Yarra, 3141 Melbourne, Australia",-37.8372321,144.9963591,9.4,8.8
Morden apartment near crown in CBD,"1610/105 Clarendon St, Southbank VIC 3006, Southbank, 3006 Melbourne, Australia",-37.827096,144.9581235,9.3,8.3
Flinders Street Apartments,"108 Flinders Street, Melbourne CBD, 3000 Melbourne, Australia",-37.81615,144.9711221,9.6,9.3
Oaks On Market,"60 Market Street, 3000 Melbourne, Australia",-37.8178256,144.9607964,9.1,8.7
Apartments of South Yarra,"46 Arthur Street, South Yarra, 3141 Melbourne, Australia",-37.8419035,144.993671,9.1,8.7
Waterfront Signature Apartment,"60 Siddeley Street, Docklands, 3008 Melbourne, Australia",-37.8228429,144.9523646,10,10
Melbourne Short Stay Apartments - Power Street,"67 Power Street, Southbank., Southbank, 3006 Melbourne, Australia",-37.8238605,144.9631986,8.7,8.5
Mantra St Kilda Road,"568 St Kilda Road , 3004 Melbourne, Australia",-37.8471823,144.9786951,8.6,8.4
Pegasus Apart-Hotel,"206 A'Beckett Street, 3000 Melbourne, Australia",-37.8101492,144.9571351,8.8,8.6
The Escape in Southern Cross Station,"Rose Lane, 3000 Melbourne, Australia",-37.8152243,144.9541591,9.5,9.1
The Jazz Corner Hotel,"352 William Street, 3000 Melbourne, Australia",-37.8112494,144.956605,9,8.8
Carlton Lygon Lodge Studio Apartments,"220 Lygon Street, , Carlton, 3053 Melbourne, Australia",-37.801868,144.967,9.2,8.6
Amity Apartment Hotels,"27-29 Claremont Street, South Yarra, 3141 Melbourne, Australia",-37.8371488,144.9937985,9,8.7
Melbourne Marriott Hotel,"Corner Exhibition And Lonsdale Streets, 3000 Melbourne, Australia",-37.8100613,144.9696932,9.3,9
Serviced Apartments Melbourne - Teri,"85 Market St, Southbank, South Melbourne, 3006 Melbourne, Australia",-37.8301709,144.9580814,8.8,8.1
ACD Apartments,"7 Caravel Lane, Docklands, 3008 Melbourne, Australia",-37.8140271,144.9422125,9,8.4
Sofitel Melbourne On Collins,"25 Collins Street, 3000 Melbourne, Australia",-37.8140301,144.9729911,9.4,8.9
Punthill Northbank,"560 flinders street, 3000 Melbourne, Australia",-37.8206319,144.9557428,9,8.9
Pan Pacific Melbourne,"2 Convention Centre Place, South Wharf, Southbank, 3006 Melbourne, Australia",-37.8247906,144.9511172,9.2,9
The Westin Melbourne,"205 Collins Street, 3000 Melbourne, Australia",-37.815847,144.9674235,9.6,9.2
Docklands Private Collection - New Quay,"7/198 Harbour Esplanade, Docklands, 3008 Melbourne, Australia",-37.8139288,144.944923,9.2,8.8
Anchorage Apartments Hampton,"12 Railway Walk North, Hampton, 3188 Melbourne, Australia",-37.9378907,145.0016624,8.7,8.7
Apartment 101,"36 La Trobe Street, 3000 Melbourne, Australia",-37.8082574,144.9676359,9.1,8.8
Honey Apartments,"39 Queen Street , 3000 Melbourne, Australia",-37.817888,144.9617372,9.7,8.9
Amazing Accommodations : South Yarra,"32, Bray St South Yarra, South Yarra, 3141 Melbourne, Australia",-37.8444692,144.9955271,9.2,8.8
Oaks WRAP on Southbank,"133-139 City Road, Southbank, 3006 Melbourne, Australia",-37.8234754,144.9635828,8.9,8.7
Pullman Melbourne Albert Park,"65 Queens Road, Albert Park, 3004 Melbourne, Australia",-37.8499725,144.9787643,8.5,8.4
Complete Host Manhattan Apartments,"33 Rose Lane, 3000 Melbourne, Australia",-37.8150102,144.9540997,9.5,9.3
"La Maison - Great View, Free Parking, Pool, Gym, Perfectly located 2BR apartment","22 Jane Bell Lane, 3000 Melbourne, Australia",-37.8102205,144.9662652,9.2,9.2
Pride Docklands Waterfront Apartment City View,"883 Collins Street, Docklands, 3008 Melbourne, Australia",-37.8211211,144.9425286,9.1,8.6
Flinders Luxury Penthouse,"7 Katherine Place 2608, 3000 Melbourne, Australia",-37.8201988,144.9564639,9.6,9.6
Parkview Hotel St Kilda Road,"562 St Kilda Rd, 3004 Melbourne, Australia",-37.8463176,144.9784584,8.8,8.7
Oaks South Yarra,"1A Yarra Street, South Yarra, 3141 Melbourne, Australia",-37.8387215,144.9928963,9.2,8.6
Parc Hotel,"1091 Plenty Road, 3083 Melbourne, Australia",-37.7093519,145.0497192,8.4,8.7
Readyset on Collins,"620 Collins Street, 3000 Melbourne, Australia",-37.8188373,144.9543434,9.2,8.1
The Sebel Melbourne Docklands,"18 Aquitania Way, Docklands, Docklands, 3008 Melbourne, Australia",-37.8135752,144.9429943,9,8.6
Canvas Suites on Russell Place,"18 Russell Place, 3000 Melbourne, Australia",-37.8134924,144.9673838,9.7,8.8
Luxuries CBD Apartment with Views,"28 southgate avenue southbank, Southbank, 3006 Melbourne, Australia",-37.8206451,144.967594,9.5,8.9
HFN Waterside Melbourne Apartment,"883-889 Collins street, Docklands, Docklands, VIC 3008 Melbourne, Australia",-37.8211211,144.9425286,8.9,8.3
Adara Richmond,"185 Lennox Street , Richmond, 3121 Melbourne, Australia",-37.817503,144.9950052,9,8.6
Art Series - The Olsen,"637 - 641 Chapel Street, South Yarra, South Yarra, 3141 Melbourne, Australia",-37.8379093,144.9955689,9.2,8.8
St Georges Motor Inn,"334 St Georges Road, Thornbury, 3071 Melbourne, Australia",-37.759245,144.993598,8.6,8.6
New Eureka 108 Hotel Apartments,"70 Southbank Boulevard, Southbank, 3006 Melbourne, Australia",-37.8232421,144.9640661,8.6,8.3
The Sebel Residences Melbourne Docklands,"18 Aquitania Way, Docklands, Docklands, 3008 Melbourne, Australia",-37.8135752,144.9429943,8.6,8
Melbourne River Views,"555 Flinders Street , 3000 Melbourne, Australia",-37.820969,144.9564872,9.9,9.9
The Crossley Hotel,"51 Little Bourke Street, 3000 Melbourne, Australia",-37.8110568,144.9710853,9.3,8.6
Quest Hawthorn,"616 Glenferrie Road,, 3122 Melbourne, Australia",-37.8235172,145.0356866,8.9,8.5
Apartments @ 133 City,"133-139 City Road, Southbank, 3006 Melbourne, Australia",-37.8234754,144.9635828,9.2,8.5
Pullman Melbourne On the Park,"192 Wellington Parade, East Melbourne, 3002 Melbourne, Australia",-37.8157506,144.9838159,9.1,8.5
Oaks Southbank,"57 - 61 City Road Southbank, Southbank, 3006 Melbourne, Australia",-37.8221297,144.9659786,9.2,8.7
Middle Park Hotel,"102 Canterbury Road, Albert Park, 3206 Melbourne, Australia",-37.8499044,144.9650126,8.7,8
Quality Hotel Melbourne Airport,"265 Mickleham Rd, Tullamarine, Tullamarine, 3043 Melbourne, Australia",-37.6817869,144.8823194,8.7,8.4
Southern Cross Serviced Apartments,"200 Spencer Street, 3000 Melbourne, Australia",-37.816228,144.9532465,9.3,8.5
Flinders Landing Apartments,"161 Flinders Lane, 3000 Melbourne, Australia",-37.816004,144.969059,9.5,8.7
Oaks on William,"350 William Street, 3000 Melbourne, Australia",-37.8112464,144.9566068,8.8,8.6
Collins Street Apartments,"233 Collins Street Apartment 516, 3000 Melbourne, Australia",-37.8160036,144.9661659,9.7,9.1
South Wharf Melbourne,"321/20 Convention Centre Place, Southbank, 3006 Melbourne, Australia",-37.8250607,144.9503296,9.8,9.4
Melbourne Short Stay Apartments On Whiteman,"63 Whiteman Street, Southbank, 3006 Melbourne, Australia",-37.8260535,144.9568461,9.3,8.6
Apartment 88,"88 Kavanagh Street 203, Southbank, 3006 Melbourne, Australia",-37.8247596,144.9629475,9.4,9.5
Empire Melbourne Central by Apartments of Melbourne,"89 A'Beckett St, Melbourne VIC 3000, Australia, 3000 Melbourne, Australia",-37.8092747,144.9608815,9.2,8.8
The Como Melbourne - MGallery by Sofitel,"630 Chapel Street, South Yarra, 3141 Melbourne, Australia",-37.8390841,144.9963602,9.2,8.9
AH accommodation@ spencer,"33 Rose Lane, 3000 Melbourne, Australia",-37.8150102,144.9540997,8.9,8.8
Park Hyatt Melbourne,"1 Parliament Square, Off Parliament Place, East Melbourne, 3002 Melbourne, Australia",-37.8110852,144.9766297,9.3,9.3
Collins Street Residences by Apartments of Melbourne,"568 Collins Street, 3000 Melbourne, Australia",-37.8183759,144.9554361,9.2,8.6
Crest on Park,"46 Park Street, 3182 Melbourne, Australia",-37.859002,144.972846,9,8.9
Summit In Southbank,"Apartment 3102, Southbank One, 180 City Road, Southbank, 3006 Melbourne, Australia",-37.8237962,144.9619272,9.3,9.4
Readyset on Upper West Side,"220 Spencer Street, 3000 Melbourne, Australia",-37.8156694,144.952988,8.9,8.1
Stamford Plaza Melbourne,"111 Little Collins Street, 3000 Melbourne, Australia",-37.8135512,144.9699174,9,8.5
Turnkey Accommodation-North Melbourne,"33 Blackwood Street, North Melbourne, 3051 Melbourne, Australia",-37.800576,144.9557042,9.3,9.1
Quest St Kilda Bayside,"1 Eildon Road, 3182 Melbourne, Australia",-37.8633027,144.9754983,9,8.5
ULTIQA Little Collins (located at the Hero Apartment Building),"140 Little Collins Street, 3000 Melbourne, Australia",-37.8134628,144.969041,9.2,8.1
Gem Apartments Short Stay,"63 Whiteman St, Southbank, 3006 Melbourne, Australia",-37.8260535,144.9568461,9.2,8.3
Novotel Melbourne Central,"399 Little Lonsdale Street, 3000 Melbourne, Australia",-37.8120449,144.960108,9.3,9
Rydges Melbourne,"186 Exhibition Street, 3000 Melbourne, Australia",-37.811318,144.9707217,9,8.1
Mantra on The Park,"333 Exhibition Street, 3000 Melbourne, Australia",-37.8078956,144.9682873,8.8,8.3
SoYa Apartment Hotel,"4 Darling Street, South Yarra, 3141 Melbourne, Australia",-37.8383892,144.9917558,9.6,9.4
Mantra on Russell,"222 Russell Street, 3000 Melbourne, Australia",-37.8112936,144.9678227,9.3,8.9
Sheraton Melbourne Hotel,"27 Little Collins Street, 3000 Melbourne, Australia",-37.8127232,144.9726251,9,8.9
Collins Hotel,"182 Collins Street, 3000 Melbourne, Australia",-37.814973,144.967492,9.4,8.1
Fraser Place Melbourne,"19 Exploration Lane, 3000 Melbourne, Australia",-37.8089339,144.9680888,8.9,8.7
Art Series - The Cullen,"164 Commarcial Road, Prahran, Prahran, 3181 Melbourne, Australia",-37.8467793,144.9916795,9.4,9.2
Vibe-Modern 2 Bed Apartment,"220 Barkly Street Unit 31, 3182 Melbourne, Australia",-37.8709428,144.9807051,9.7,9.5
Adina Apartment Hotel Melbourne,"189 Queen Street, 3000 Melbourne, Australia",-37.8142669,144.9599797,9.3,8.8
Abode 316,"108 Flinders St, 3000 Melbourne, Australia",-37.81615,144.9711221,10,9.7
Comfort Hotel East Melbourne,"90 Albert Street, East Melbourne, 3002 Melbourne, Australia",-37.8105896,144.9880763,8.5,8
Best Views on Collins,"889 Collins Street , Docklands, 3008 Melbourne, Australia",-37.8208882,144.9416138,9.9,9.9
Docklands Waterfront Luxury Villa,"104 South Wharf Drive, Docklands, 3008 Melbourne, Australia",-37.8219201,144.9355231,8.8,9.2
Somerset on Elizabeth Melbourne,"250 Elizabeth Street, 3000 Melbourne, Australia",-37.8125531,144.9626799,9.6,8.8
Experience Bella Hotel Apartments,"250 City Road, Southbank, 3006 Melbourne, Australia",-37.8257579,144.9595488,8.7,8.3
Park Squire Motor Inn & Serviced Apartments,"94 Flemington Rd, , North Melbourne, 3052 Melbourne, Australia",-37.7983111,144.9530758,8.1,8.2
HFN Crown Southbank Riversides Apartment,"2003 / 9 Power street, Southbank, Southbank, 3006 Melbourne, Australia",-37.8231515,144.9613723,9.1,8.3
Quest Docklands Apartment Hotel,"750 Bourke Street Docklands, Docklands, 3008 Melbourne, Australia",-37.8184713,144.9476605,9.3,8.9
28 Nights Apartments,"187 City Road, Southbank, 3006 Melbourne, Australia",-37.8250629,144.9617704,8.6,8.4
City Tempo Melbourne CBD,"353 Queen Street, 3000 Melbourne, Australia",-37.8102336,144.9583313,8.9,8.5
Clarion Suites Gateway,"1 William Street, 3000 Melbourne, Australia",-37.8195037,144.9595058,9.3,9
HFN Southern Cross Apartment,"568 Collins street, 3000 Melbourne, Australia",-37.8183759,144.9554361,8.9,8.7
Tyrian Albert Park Lake,"14 Queens Road, Albert Park, 3004 Melbourne, Australia",-37.8389211,144.9749946,9,9.2
Citadines on Bourke Melbourne,"131-135 Bourke Street, 3000 Melbourne, Australia",-37.8126841,144.9693093,9.5,8.9
The Sebel Melbourne Malvern,"803 Dandenong Road, 3145 Melbourne, Australia",-37.8742431,145.0390809,8.2,8.6
Milano Serviced Apartments,"8 Franklin St, 3000 Melbourne, Australia",-37.8074344,144.9621145,8.8,8.3
The Hamptons Apartments,"45 Nott Street, 3207 Melbourne, Australia",-37.8415293,144.9376326,9.3,9.1
Treasury on Collins,"394 Collins Street, 3000 Melbourne, Australia",-37.81668,144.96104,9.5,9.1
Mono Two on Flinders Street,"108 Flinders Street, 3000 Melbourne, Australia",-37.81615,144.9711221,9,8.1
Quest Prahran,"9 Balmoral Street, , South Yarra, 3141 Melbourne, Australia",-37.8458191,144.9909759,9.2,8.7
Waterfront Melbourne Apartments,"60 Siddeley Street, Docklands, 3008 Melbourne, Australia",-37.8228429,144.9523646,9.6,9.2
Mono Apartments on Freshwater Place,"1 Freshwater Place, South Bank, Southbank, 3006 Melbourne, Australia",-37.8217362,144.962136,9.6,8.4
Mantra Southbank,"31 City Road, Southbank, Southbank, 3006 Melbourne, Australia",-37.821652,144.9669056,9.1,8.7
Hotel Lindrum Melbourne - MGallery by Sofitel,"26 Flinders Street, 3000 Melbourne, Australia",-37.8153185,144.9736177,9.3,9.1
Best Western Plus Buckingham International,"1130 Nepean Hwy, Highett, 3190 Melbourne, Australia",-37.9506204,145.0464845,8.4,8.4
Experience Aria Hotel Apartments,"285 City Road, Southbank, 3006 Melbourne, Australia",-37.8274177,144.9587959,8.7,8.2
MJ Shortstay Centurion Apartment,"83 Whiteman Street, Southbank, 3006 Melbourne, Australia",-37.8270114,144.9559351,9.6,8.7
HFN Crown Boutique Apartment,"61-63 Haig Street Southbank Victoria 3006, Southbank, 3006 Melbourne, Australia",-37.8276686,144.9566961,8.8,8.3
Southbank Short Stay Apartment,"283 City Road , Southbank, 3006 Melbourne, Australia",-37.827276,144.9590267,9.6,9.9
Park Regis Griffin Suites,"604 St. Kilda Road, 3004 Melbourne, Australia",-37.851214,144.9800936,8.7,8.5
RNR Serviced Apartments North Melbourne,"139 Chetwynd Street, North Melbourne, 3051 Melbourne, Australia",-37.8023863,144.9521911,9,8.9
Adina Apartment Hotel Melbourne Northbank,"550 Flinders Street, 3000 Melbourne, Australia",-37.8202977,144.9559351,9,8.8
Sandra - Beyond a Room Private Apartments,"1 Bouverie Street, Carlton, 3053 Melbourne, Australia",-37.806396,144.9612606,8.8,8.7
Caroline Serviced Apartments Brighton,"3 Male Street, Brighton, 3186 Melbourne, Australia",-37.9161618,144.9958381,9,8.8
Mantra on Little Bourke,"471 Little Bourke Street, 3000 Melbourne, Australia",-37.814469,144.959041,9.2,8.9
Accent Accommodation@Docklands,"37 Caravel Lane, Docklands, Docklands, 3008 Melbourne, Australia",-37.8147995,144.9407795,9.4,9.2
Tyrian Serviced Apartments Fitzroy,"91 Johnston Street, Fitzroy, 3065 Melbourne, Australia",-37.7980854,144.9776366,9.6,9.3
Collins Accommodation,"568 Collins Street, Apartment 4803, 3000 Melbourne, Australia",-37.8183759,144.9554361,9.8,9.6
Quest Melbourne Airport,"20 Annandale Road, Tullamarine, 3045 Melbourne, Australia",-37.7031165,144.8570933,8.4,8.7
Quest Abbotsford,"611 Victoria Street, 3067 Melbourne, Australia",-37.8110857,145.0076103,8.6,8.7
Peppers Docklands,"679 La Trobe Street, Docklands, 3008 Melbourne, Australia",-37.8148672,144.9472693,8.9,8.9
Southbank,"22 Dorcas Street 1705, South Melbourne, 3006 Melbourne, Australia",-37.8300237,144.9695301,9.4,9.3
Melbourne Holiday Apartments Flinders Wharf,"60 Siddeley Street, Docklands, 3008 Melbourne, Australia",-37.8228429,144.9523646,9.5,9.1
Quest Royal Gardens,"8 Royal Lane, Fitzroy, 3065 Melbourne, Australia",-37.804695,144.9746986,9.3,8.6
Crest on Barkly Hotel,"47 Barkly Street, 3182 Melbourne, Australia",-37.8588352,144.9825237,8.3,8
Quest on Dorcas,"8 Dorcas Street,, South Melbourne, 3205 Melbourne, Australia",-37.8299888,144.9702345,9.2,8.9
Hawthorn Gardens Serviced Apartments,"750 Toorak Road, Hawthorn East, 3123 Melbourne, Australia",-37.8454379,145.0435749,8.2,8
Punthill Apartment Hotel - Little Bourke,"11-17 Cohen Place, 3000 Melbourne, Australia",-37.8110453,144.968905,9,8.4
Self Service Apartment Free Parking+Wifi,"905/6 St Kilda Road, St Kilda West, 3182 Melbourne, Australia",-37.8566873,144.9834374,8.6,8.2
Park Lane Apartment,"6/8 Wellington Crescent, East Melbourne, 3002 Melbourne, Australia",-37.8172254,144.9776737,9.7,9.3
Majorca Magic on Flinders Lane - Rejuvenate Stays,"260 Flinders Lane, 3000 Melbourne, Australia",-37.8167912,144.9655274,9.6,9.1
HFN Bourke St Short stay Apartment,"838 Bourke Street, Docklands, 3008 Melbourne, Australia",-37.8198282,144.943262,9.5,9.2
Artel Apartment Hotel Melbourne,"756 Sydney Road, 3056 Melbourne, Australia",-37.759604,144.963599,8.4,8.7
Adelphi Hotel,"187 Flinders Lane, 3000 Melbourne, Australia",-37.8164231,144.968433,9.6,9.1
Fawkner Apartment Bay-view 5,"499 Saint Kilda Road, 3004 Melbourne, Australia",-37.8431329,144.9793406,8.4,8.1
Corporate Keys - Elm Apartments,"22 Dorcas Street, Southbank, South Melbourne, 3004 Melbourne, Australia",-37.8300237,144.9695301,8.8,8.3
HFN Skyline Luxury Apartment,"6710/442 Elizabeth Street , 3000 Melbourne, Australia",-37.8082901,144.9608496,9.4,8.8
Southbank Biz-Biz Hotel Apartment,"151 city road, southbank, Southbank, 3006 Melbourne, Australia",-37.8237034,144.9631086,8.5,8
Quay West Suites Melbourne,"Southgate Avenue, Southbank, 3000 Melbourne, Australia",-37.8212413,144.9655654,9.6,9.1
Alto Hotel On Bourke,"636 Bourke Street, 3000 Melbourne, Australia",-37.8164338,144.9547794,9.4,9
District Apartments Fitzroy,"160 Argyle Street, Fitzroy, 3065 Melbourne, Australia",-37.798012,144.981167,9.2,8.7
Premier Stays Melbourne,"99 Whiteman Street, Southbank, 3006 Melbourne, Australia",-37.8273542,144.955548,9.4,9.3
"LIGHT, AIRY, SPACIOUS QUEENS ROAD APARTMENT","70 Queens Road Apartment #1003, Albert Park, 3004 Melbourne, Australia",-37.8511224,144.9791254,9.4,9.5
Quest on Chapel,"651 Chapel Street, South Yarra, 3141 Melbourne, Australia",-37.837437,144.995805,9.2,8.7
Harbour Escape Apartments Docklands,"NewQuay, Docklands, Docklands, 3008 Melbourne, Australia",-37.8142524,144.942659,9.4,8.8
Camberwell Serviced Apartments,"85 Camberwell Road , 3124 Melbourne, Australia",-37.8271453,145.052223,8.9,8.8
Luxury Apartments with View,"241 City Road Southbank , Southbank, 3006 Melbourne, Australia",-37.8265171,144.960065,9.5,9.2
Shadow Play by Peppers,"308 - 320 City Road, Southbank, 3000 Melbourne, Australia",-37.8270317,144.9583105,9,9.2
Premier Stays Melbourne,"163 City Road, Southbank, 3006 Melbourne, Australia",-37.8243289,144.9626463,9.4,9.1
Quest Southbank,"12-16 Kavanagh Street, Southbank, 3006 Melbourne, Australia",-37.8227143,144.9663706,8.9,8.5
ZEN Homes on Collins,"233 Collins Street , 3000 Melbourne, Australia",-37.8160036,144.9661659,9.9,9.5
HFN The Bank Apartment,"283 City Rd The Bank, Southbank, 3006 Melbourne, Australia",-37.827276,144.9590267,9.5,9.2
Beach Apartment Port Melbourne,"Nott Street, 3207 Melbourne, Australia",-37.8377228,144.9413545,9.8,9.6
Liberal Boutique Hotel Apartment,"551 Swanston Street, Carlton, 3053 Melbourne, Australia",-37.8056733,144.9623021,9.5,9.1
Sanctuary Apartments - Freshwater Place,"1 Freshwater Place, Southbank, 3006 Melbourne, Australia",-37.8217362,144.962136,9.5,8.1
Australia 108,"70 Southbank Boulevard, Southbank, 3006 Melbourne, Australia",-37.8232421,144.9640661,8.9,8.6
Modern 639 Lonsdale APT,"639 Lonsdale Street, 3000 Melbourne, Australia",-37.8151005,144.9535261,9.4,8.9
North Essendon B & B,"140 Marigold Crescent, Tullamarine, 3043 Melbourne, Australia",-37.7010747,144.8991933,9,9.3
Quest Flemington Apartment Hotels,"600 Epsom Road, Flemington , 3031 Melbourne, Australia",-37.7886513,144.9214028,8.7,8.4
Melbourne Knox Central Apartment Hotel,"400 Burwood Highway Wantirna South, 3152 Melbourne, Australia",-37.8694419,145.2353723,9,9.1
Executive stay Little Collins street,"27 Little Collins Street, 3000 Melbourne, Australia",-37.8127232,144.9726251,9.5,9.3
Spectacular Views Top Floor- Private Apartment.,"3 Alfred Square 81, 3182 Melbourne, Australia",-37.864266,144.9742201,9.8,9.4
"Melbourne Private Apartments - Collins Wharf Waterfront, Docklands","915 Collins Street, Docklands, 3008 Melbourne, Australia",-37.8203823,144.9397919,8.5,9.7
Accommodation Heidelberg CBD Apartments,"1 Powlett St, 3084 Melbourne, Australia",-37.7548037,145.0581881,9.5,9.5
Sanctuary Apartments on Collins,"325 Collins Street 203, 3000 Melbourne, Australia",-37.8166442,144.9635498,9.6,8.1
Nest-Apartments on QV,"22-24 jane  bell lane, 3000 Melbourne, Australia",-37.8102191,144.966267,9.6,8.2
Quest Jolimont,"153-155 Wellington Parade South, East Melbourne, 3002 Melbourne, Australia",-37.8167098,144.9795804,9.3,8.9
Luxury skyhigh apartment views of beach and city,"Apt 1909, 3-5 Saint Kilda Road, 3182 Melbourne, Australia",-37.8683221,144.9869236,9.3,9.8
Nest-Apartments on Collins,"568 Collins Street, 3000 Melbourne, Australia",-37.8183759,144.9554361,9.3,8.7
Cosmo Central Hotel Apartment,"60 A®πBeckett St Melbourne, 3000 Melbourne, Australia",-37.8087405,144.9614497,9.3,8.7
Fawkner Apartment Bay-view 4,"499 Saint Kilda Road, 3004 Melbourne, Australia",-37.8431329,144.9793406,8.9,9.1
"Pars Apartments - Collins Wharf Waterfront, Docklands","915 Collins Street, Docklands, 3008 Melbourne, Australia",-37.8203823,144.9397919,9.8,9.6
Absolute Collins,"233-239 Collins Street, 3000 Melbourne, Australia",-37.8160058,144.966174,9.7,8.9
Sanctuary Apartments - Prima Pearl,"9 Power Street, Southbank, 3006 Melbourne, Australia",-37.8231515,144.9613723,9.6,8.6
HFN Union Tower Apartment,"300 Little Lonsdale Street, 3000 Melbourne, Australia",-37.8115161,144.9606515,8.9,8.4
Pride Manor South Yarra,"7 Claremont Street, South Yarra, 3141 Melbourne, Australia",-37.838188,144.993552,9.1,8.6
"South Yarra Gem - 2bed, 2bath, Carpark, Wifi","227 Toorak Road, South Yarra, 3141 Melbourne, Australia",-37.8392175,144.994692,9.7,9.4
Mins to Mel CBD | Water View Brand New 2Bed APT,"883 Collins Street, Docklands, 3008 Melbourne, Australia",-37.8211211,144.9425286,9.5,8.3
Quest Moonee Valley,"1 McPherson Street, 3039 Melbourne, Australia",-37.7658233,144.9269885,9,8.7
Stunning Home in Melbourne CBD,"565 Flinders Street, 3000 Melbourne, Australia",-37.8211278,144.9558983,9.7,9
Melbourne Docklands Seaview Apartment,"889 Collins Street, Docklands, 3008 Melbourne, Australia",-37.8208882,144.9416138,9.4,8.5
Essendon Apartments,"1040 Mt Alexander Road, 3040 Melbourne, Australia",-37.749064,144.9139378,9.2,9.2
Home Sweet Homestays,"23 Irwell Street 1, 3182 Melbourne, Australia",-37.8671654,144.9805089,9.4,9.3
Melrose Apartments,"171-173 Melrose Street, North Melbourne, 3051 Melbourne, Australia",-37.7907637,144.9423093,9.1,9.3
Skr Bed and Breakfast,"228 La Trobe St Melbourne, 3000 Melbourne, Australia",-37.8098871,144.9628379,8.7,8.4
Homely Getaways @ Swanston Square,"555 Swanston Street, Carlton, 3053 Melbourne, Australia",-37.8057442,144.9627896,9.3,8.3
Position Perfect,"82 Blyth Street Brunswick, 3056 Melbourne, Australia",-37.766339,144.968999,9.4,9.4
Flinders Lane - Studio Apartment,"Unit 309/238 Flinders Lane, 3000 Melbourne, Australia",-37.8165136,144.9659591,9.8,9.3
Essendon - home away from home,"12 Cliff Street, 3040 Melbourne, Australia",-37.75761,144.911474,10,10
225 Melbourne Tower,"173 City Road, Southbank, 3006 Melbourne, Australia",-37.824628,144.9623452,9.3,9.2
"Melbourne Private Apartments - Collins Street Waterfront, Docklands","883-889 Collins Street, Docklands, 3008 Melbourne, Australia",-37.8211211,144.9425286,9.3,9.1
Platinum Apartments @ Freshwater Place,"1 Freshwater Place, Southbank, 3006 Melbourne, Australia",-37.8217362,144.962136,9.6,8.9
381 Cremorne,"381 Punt Road, Cremorne, Cremorne , 3121 Melbourne, Australia",-37.825492,144.988908,9.3,9.1
"Auzzie Apartments Docklands, Melbourne","889 Collins Street, Docklands, 3008 Melbourne, Australia",-37.8208882,144.9416138,8.9,9.5
Apartments on Flemington,"113 Flemington Road North Melbourne, North Melbourne, 3051 Melbourne, Australia",-37.7974471,144.9515688,9.2,8.8
Ivanhoe Apartments,"443 Upper Heidelberg Road, 3079 Melbourne, Australia",-37.755484,145.05588,9.2,9.7
"Melbourne Private Apartments - Haig Street, Southbank","50 Haig Street, Southbank, 3006 Melbourne, Australia",-37.826844,144.9568385,9.4,9.1
Crest On Barkly Serviced Apartments,"25-47 Barkly Street, 3182 Melbourne, Australia",-37.858403,144.982603,8.2,8.2
Dockland Kings Lucky 805,"15 Caravel Lane, Docklands, 3008 Melbourne, Australia",-37.814211,144.9416969,9.1,9
Espresso Apartments - Style in the heart of Carlton,"104/475 Cardigan St, Carlton, 3053 Melbourne, Australia",-37.7940738,144.9663033,9.6,9.1
La Stella,"5 John st Flemington, Flemington , 3031 Melbourne, Australia",-37.783909,144.9269563,9.3,9.3
"Parque Apartments 1, St Kilda Road & CBD","G03/555 St Kilda Road, 3004 Melbourne, Australia",-37.8470517,144.9806745,9.2,8.4
Apartments on Church Street,"602, 8 Howard Street Richmond, Richmond, 3121 Melbourne, Australia",-37.8335208,144.9975397,8.6,8.1
Melbourne Fitzroy Terrace,"10 Delbridge Street, 3068 Melbourne, Australia",-37.7886685,144.9887946,9.5,9.5
Zach - Beyond a Room Private Apartments,"163 Fitzroy Street, St Kilda, 3182 Melbourne, Australia",-37.8588437,144.9798363,9.2,8.6
F&D' s House,"44 Verdant Avenue, 3142 Melbourne, Australia",-37.8329921,145.0075452,8.1,9
ReadySet Southbank,"88 Kavanagh Street, Southbank, 3006 Melbourne, Australia",-37.8247596,144.9629475,8.8,8.3
CBD 2bedroom apartment Best Location in Melbourne,"33 MacKenzie Street, 3000 Melbourne, Australia",-37.807711,144.9669056,8.8,9.2
Modern CBD Apartment - Free Secure Parking and Wifi,"1 Bouverie Street, Carlton, 3053 Melbourne, Australia",-37.806396,144.9612606,9,8.5
Fantastic Freshwater,"3707/1 Freshwater Place , Southbank, 3006 Melbourne, Australia",-37.8217362,144.962136,9.9,9.5
WeMeet Melbourne,"Unit 501-506, 327 La Trobe Street, 3000 Melbourne, Australia",-37.8109622,144.959802,9.8,9.1
Readyset on City Road,"283 City Road, Southbank, 3006 Melbourne, Australia",-37.827276,144.9590267,9.3,8.4
Punthill Essendon Grand,"1142 Mount Alexander Road, 3040 Melbourne, Australia",-37.7443271,144.9106916,8.9,8.7
Marina View Apartment on the Maribyrnong River,"112/20 Pier Lane, 3032 Melbourne, Australia",-37.7852656,144.8999965,9.5,9.7
Six Star Serviced Apartments,"Chapel Street 1804, South Yarra, 3141 Melbourne, Australia",-37.8417659,144.9951571,9.5,9.4
Camberwell Burke Road Apartment,"Unit 114, 828 Burke Road, 3124 Melbourne, Australia",-37.821798,145.058718,10,9.5
Cleo - Beyond a Room Private Apartments,"63 Acland Street, 3182 Melbourne, Australia",-37.8662516,144.97706,9.5,8.6
Benjamin - Beyond a Room Private Apartments,"Franklin St, 3000 Melbourne, Australia",-37.8082287,144.9599825,9.3,8.1
CENTRAL CBD Stylish Pad 2BD with views *WIFI,"450 Elizabeth Street, 3004 Melbourne, Australia",-37.8082642,144.9607964,9.6,9.3
COMPLETE HOST Coventry St Apartments,"35 Coventry Street, South Melbourne, 3006 Melbourne, Australia",-37.8294694,144.9691814,9.3,8.7
"Boutique Stays - Wellington Mews, Apartment in East Melbourne","25/1 Wellington Crescent, East Melbourne 3002, East Melbourne, 3002 Melbourne, Australia",-37.8174041,144.9782346,9.4,9
Studio# on Collins,"568 Collins Street, 3000 Melbourne, Australia",-37.8183759,144.9554361,9.4,9.1
Melbourne Holiday Apartments South Wharf,"20 Convention Place 321, Southbank, 3006 Melbourne, Australia",-37.8250607,144.9503296,9.5,9.1
Port Stay One,"1 Graham Street, 3207 Melbourne, Australia",-37.8431092,144.9447471,10,9.8
CBD Little Paris - StayCentral,"237 Flinders Lane, 3000 Melbourne, Australia",-37.8168093,144.9664539,9.2,7.9
Collins - 1 Bedroom Aptm,"568 Collins Street, 3004 Melbourne, Australia",-37.8183759,144.9554361,9.5,8.8
Studio# on Spencer,"200 Spencer Street, 3000 Melbourne, Australia",-37.816228,144.9532465,8.9,8.6
Logan - Beyond a Room Private Apartments,"27 Little Collins Street, Melbourne, VIC, 3000 Melbourne, Australia",-37.8127232,144.9726251,8.9,8.5
The Cyclist's Apartment,"32-38 George Street, East Melbourne, 3002 Melbourne, Australia",-37.815522,144.989213,9.2,9.3
Miles - Beyond a Room Private Apartments,"555 Flinders Street, 3000 Melbourne, Australia",-37.820969,144.9564872,8.4,8.5
Kim - Beyond a Room Private Apartments,"3/76 Jeffcott St, West Melbourne, 3003 Melbourne, Australia",-37.8119066,144.9511361,9.3,8.8
Wattle Glen Apartment,"48 mannish road Wattle glen, 3096 Melbourne, Australia",-37.663368,145.188498,7.6,8.6
Complete Host SEE Apartments,"1201/45 Claremont St, South Yarra, 3141 Melbourne, Australia",-37.8364918,144.9939273,8.9,8.3
Cityviews - 3 Bedroom Apartment - StayCentral,"180 City Road, Southbank, Southbank, 3006 Melbourne, Australia",-37.8240013,144.9620001,9.6,8.9
Lighthouse - 1 Bedroom Aptm,"450 Elizabeth Street, 3004 Melbourne, Australia",-37.8082642,144.9607964,9.2,8.2
Complete Host AquaLuna Apartments,"103/63 Acland Street, St Kilda, 3182 Melbourne, Australia",-37.8662516,144.97706,9.4,8.3
EQ Tower - Service Apartment,"127 Abeckett Street , 3000 Melbourne, Australia",-37.8097643,144.9596812,8.7,8.1
Port Stay Two City Lights,"232-242 Rouse Street, 3207 Melbourne, Australia",-37.8407028,144.9374656,9.5,9.7
Little Collins St - Beyond A Room Private Apartments,"601 little collins st, 3000 Melbourne, Australia",-37.8180264,144.9549093,9.2,8.4
Complete Host Epic Apartments,"118 Kavanagh Street 1702, Southbank, 3006 Melbourne, Australia",-37.8253868,144.962001,8.8,8.8
"Leila, Beyond a Room Private Apartments","565 Flinders St, 3000 Melbourne, Australia",-37.8211278,144.9558983,8.5,8.3
Melbourne Central NO.1-1Bed1Bath,"135 A'Beckett Street, 3000 Melbourne, Australia",-37.8096952,144.9595078,9,8.4
Celeste - Beyond a Room Private Apartments,"213/279 Wellington Parade South, East Melbourne, 3000 Melbourne, Australia",-37.8162348,144.9760422,9,8.4
"Boutique Stays - Vox Terrace, Prahran Apartment","104/59 Porter Street, Prahran 3181, Prahran, 3181 Melbourne, Australia",-37.846943,144.990644,10,8.5
Dorcas - 1 Bedrom Aptm,"22 Dorcas Street, South Melbourne, 3006 Melbourne, Australia",-37.8300237,144.9695301,9,9
Mila - Beyond a Room Private Apartments,"140 Swan Street, Richmond, 3121 Melbourne, Australia",-37.8257318,144.9947826,8.9,8.5
Complete Host Mainpoint Apartments,"241 City Road, Southbank, 3006 Melbourne, Australia",-37.8265171,144.960065,9.4,9.2
Kayla - Beyond a Room Private Apartments,"5/120 Sturt Street, Southbank, 3006 Melbourne, Australia",-37.8248504,144.9667038,9.5,8.9
Complete Host Vogue Apartments,"713/35 Malcolm St, South Yarra, 3141 Melbourne, Australia",-37.8371379,144.996434,9.8,8.8
Vera - Beyond a Room Private Apartments,"284 Dorcas St, South Melbourne, South Melbourne, 3205 Melbourne, Australia",-37.833948,144.956602,9.5,9.1
Matilda - Beyond a Room Private Apartments,"227 Toorak Rd, South Yarra, VIC, South Yarra, 3141 Melbourne, Australia",-37.8392175,144.994692,9.1,8.6
"Nordic by ZEN Homes, Melbourne CBD","225 Elizabeth Street, 3000 Melbourne, Australia",-37.8132308,144.9623173,9.6,9.4
Capitol - 1 Bedroom Aptm,"115 Swanston Street, 3000 Melbourne, Australia",-37.814996,144.9660285,9.4,8.6
Sunday Escape,"65 Coventry Street Unit 202, South Melbourne, 3006 Melbourne, Australia",-37.8298844,144.9679382,10,9.6
"Level 26 Fulton Lane @Holistay, Melbourne CBD","120 A'Beckett Street, 3000 Melbourne, Australia",-37.8094134,144.9596804,9.5,8.1
Mono Apartments on QV,"22 Jane Bell Lane, 3000 Melbourne, Australia",-37.8102205,144.9662652,9.3,8.2
Astra Apartments Southbank,"9 Power Street, Southbank, Southbank, 3006 Melbourne, Australia",-37.8231515,144.9613723,9.2,8.8
Executive stay Doepel Way,"15 Doepel Way, Docklands, 3008 Melbourne, Australia",-37.814778,144.9398816,10,7.8
Rosie - Beyond a Room Private Apartments,"6/11 herbert Street, St Kilda , 3182 Melbourne, Australia",-37.8713569,144.9823743,9.8,8.8
Bluebell Apartments,"Unit 602, 1-3 Watts St, Box Hill, 3128 Melbourne, Australia",-37.817576,145.125172,8.5,8.6
Spectacular View Home in the heart of Melbourne,"33 MacKenzie Street, 3000 Melbourne, Australia",-37.807711,144.9669056,9.5,8.3
City Fringe Lovely 1 Bedroom Apartment@Ikebana,"130 Dudley Street, West Melbourne, 3003 Melbourne, Australia",-37.809552,144.950835,8.6,8
Dali - Beyond a Room Private Apartments,"2106/63 Whiteman Street, Southbank, Southbank, 3006 Melbourne, Australia",-37.8260535,144.9568461,8.9,8.1
Archie's CBD Laneway Apartments,"562 Little Bourke Street, 3000 Melbourne, Australia",-37.815158,144.955702,8.6,9
Hotel Frank,"470 ST KILDA RD, 3004 Melbourne, Australia",-37.8412822,144.9765221,9,9.3
Southbank Apartments Freshwater Place,"1 Freshwater Place, Southbank, 3006 Melbourne, Australia",-37.8217362,144.962136,9.6,8.6
Prima Tower 51 on Southbank,"5109/35 Queensbridge St, Southbank, 3006 Melbourne, Australia",-37.8229418,144.9613557,9.7,8.2
Megan - Beyond a Room Private Apartments,"270 King Street, 3000 Melbourne, Australia",-37.813751,144.9550317,9.1,8.6
"Boutique Stays - Melrose Terrace, Townhouse in North Melbourne","54 Melrose St, North Melbourne 3051, North Melbourne, 3051 Melbourne, Australia",-37.793544,144.94231,9.5,9
Position Perfect Carlton,"280 Cardigan Street, Carlton, 3053 Melbourne, Australia",-37.798163,144.9660537,9.5,8.8
COMPLETE HOST Park View St Kilda,"181 Fitzroy Street, 3182 Melbourne, Australia",-37.8578428,144.9814061,9,9
George - 1 Bedroom Aptm,"97 Flemington Road, North Melbourne, 3051 Melbourne, Australia",-37.7983825,144.9528286,8.5,8.7
Crown Towers,"8 Whiteman Street, Southbank, 3006 Melbourne, Australia",-37.8234367,144.9580861,9.5,9.3
The Walkup: Luxury Central 3BD Apartment+Gym+Pool,"175 City Road, Southbank, 3006 Melbourne, Australia",-37.8244974,144.9622271,10,9.4
Complete Host Domain Apartments,"65 Coventry Street, South Melbourne, 3141 Melbourne, Australia",-37.8298844,144.9679382,9.4,8.9
Luxury Penthouse with amazing views!,"1 William Street, 3000 Melbourne, Australia",-37.8195037,144.9595058,9.8,9.3
architect designed apartment,"8/32 Bourke Street, 3000 Melbourne, Australia",-37.811442,144.9720127,9.3,8.8
Abigail - Beyond a Room Private Apartments,"888 Collins Street 3202, Docklands, 3008 Melbourne, Australia",-37.8205169,144.9422993,9.2,8.8
StayCentral Docklands Delight,"8 Pearl River Road, Docklands, 3008 Melbourne, Australia",-37.8155523,144.9379982,9.6,8.9
Central of Melbourne,"81 A'Beckett Street, 3000 Melbourne, Australia",-37.809322,144.961332,9.2,8.4
Mono Apartments on Empire,"398 Elizabeth Street, 3000 Melbourne, Australia",-37.8093895,144.9612094,8.9,8.3
Embrace The Artistic Lifestyle of Melbourne-350W,"17 Singers Lane, 3000 Melbourne, Australia",-37.8110694,144.9566126,8.9,8.5
"Imogen, Beyond a Room Private Apartments","43 Therry Street, 3000 Melbourne, Australia",-37.8071519,144.9607199,9.3,8.5
Sleek 2 bed apartment next to Etihad Stadium,"Docklands, 3008 Melbourne, Australia",-37.8170652,144.9419122,9.5,8.1
City FringeÂ∏Ç‰∏ÂøÅµÊ∏ØÊπæ¨9.1,"65 Dudley Street, West Melbourne, 3003 Melbourne, Australia",-37.8100679,144.9503449,9.7,
The Emerald,"35 Albert Rd, South Melbourne, 3004 Melbourne, Australia",-37.834695,144.9721117,9.1,8.8
Naomi - Beyond a Room Private Apartments,"21 Park Street, South Melbourne, VIC, South Melbourne, 3205 Melbourne, Australia",-37.8331046,144.9697118,9.4,8.9
"Farina, Docklands Short Stay Apartments","18 Waterview Walk, Docklands, 3008 Melbourne, Australia",-37.819168,144.9475704,8.3,7.9
Lizzi - Beyond A Room Private Apartments,"455 Elizabeth Street 205, 3000 Melbourne, Australia",-37.8084293,144.9602064,9,8
"Boutique Stays -Zinc Apartments, Port Melbourne","3207 Melbourne, Australia",-37.8315264,144.9226452,9.6,9.3
Dorcas St. Boutique Hotel Apartment,"68-70 dorcas street,, south bank, South Melbourne, 3006 Melbourne, Australia",-37.8307136,144.9675651,8.8,8
City Tower Apartment,"183 City Road, unit 142, Southbank, 3006 Melbourne, Australia",-37.8249708,144.961958,8.8,8.2
3BR Apartment at Victoria Tower Southbank,"100 Kavanagh Street, Southbank, 3006 Melbourne, Australia",-37.8251586,144.9627015,9.7,9.7
Complete Host CBD Lighthouse Apartments,"450 Elizabeth Street, 3004 Melbourne, Australia",-37.8082642,144.9607964,9.3,9.2
Hudson - 2 Bedroom Aptm,"220 Spencer Street, 3000 Melbourne, Australia",-37.8156694,144.952988,9.6,9.5
Complete Host Southpoint Apartments,"22 Kavanagh Street, Southbank, 3006 Melbourne, Australia",-37.8229321,144.9658885,9.5,9
LaTrobe - 2 Bedroom Aptm,"68 Latrobe Street, 3000 Melbourne, Australia",-37.8083648,144.9667899,9.6,9.3
Stylish luxury apartment with park views,"Albert Park, 3004 Melbourne, Australia",-37.8301583,144.9804594,9.7,9.1
Caravel Lane Apartment,"39 Caravel Lane, Docklands, 3008 Melbourne, Australia",-37.8147514,144.9407958,8.9,8.1
Viste Della Fortuna - Rejuvenate Stays,"555 Flinders Street, 3000 Melbourne, Australia",-37.820969,144.9564872,8.9,8.4
Complete Host Yarra House Apartments,"18 Yarra Street Apt 604, South Yarra, 3141 Melbourne, Australia",-37.836235,144.993184,9.4,8.6
The House of Windsor,"64 Earl Street East, Prahran, 3181 Melbourne, Australia",-37.8539975,144.9968666,9.6,9.4
Allinda - Beyond a Room Private Apartments,"2006/8 DOWNIE STREET, 3000 Melbourne, Australia",-37.8203662,144.9559713,8.7,8.1
Richmond Bosisto Street,"32 Bosisto Street, Richmond, 3121 Melbourne, Australia",-37.8179566,144.9968074,9.2,8.7
Molly - Beyond a Room Private Apartments,"Unit 4, 109, Lygon Street, Carlton, VIC, Carlton, 3053 Melbourne, Australia",-37.8045102,144.9660078,9.5,8.6
Brunswick Street Central,"1 Saint David Street 37, Fitzroy, 3065 Melbourne, Australia",-37.8006511,144.9795913,9.2,8.2
Brady Hotels Central Melbourne,"30 Little Latrobe Street, 3000 Melbourne, Australia",-37.8091735,144.9626678,9,8.6
Melbourne Luxury Apartment,"1202/35 Albert Road , South Melbourne, 3004 Melbourne, Australia",-37.834695,144.9721117,9.2,9.2
Mono Apartments on Elm,"22 Dorcas Street, Southbank, South Melbourne, 3000 Melbourne, Australia",-37.8300237,144.9695301,9.3,8.8
Evan - Beyond A Room Private Apartments,"1 Freshwater Place, Southbank, 3006 Melbourne, Australia",-37.8217362,144.962136,9.8,9
Cynthia - Beyond A Room Private Apartments,"57 Flinders Lane, 3000 Melbourne, Australia",-37.8149825,144.9728432,9.6,8.4
Super cozy self-service apartment,"568 Saint Kilda Road 1004, 3004 Melbourne, Australia",-37.8471823,144.9786951,9.3,9.5
Perfect Studio with Great Location within the CBD,"220 Spencer Street, 3000 Melbourne, Australia",-37.8156694,144.952988,10,9.2
2BEDS Melbourne Central|Crown Casino|Colin|S Cross,"1411/565 Flinders Street, 3000 Melbourne, Australia",-37.8211278,144.9558983,9.8,8.9
Tennyson - Beyond a Room Private Apartments,"9 Tennyson Street, Richmond, Richmond, 3121 Melbourne, Australia",-37.8239979,144.9918179,9.4,8.5
Brilliant Victoria Harbour Waterfront LVII,"883 Collins Street, Docklands, 3008 Melbourne, Australia",-37.8211211,144.9425286,8.6,8.1
"Tiara, Beyond a Room Private Apartments","50 Haig Street, Southbank, 3006 Melbourne, Australia",-37.826844,144.9568385,9.6,8.2
Roden Residences,"16 Roden Street, 3003 Melbourne, Australia",-37.8058719,144.9502339,8.9,8.9
Brooke - Beyond a Room Private Apartments,"3 Alfred Square, 3182 Melbourne, Australia",-37.864266,144.9742201,9.5,8.7
Complete Host Leopold Apartments,"470 St Kilda Road, 3004 Melbourne, Australia",-37.8412822,144.9765221,9,8.6
Ovolo Laneways,"19 Little Bourke Street, 3000 Melbourne, Australia",-37.810674,144.9719576,9.5,9.3
Luxury & Cosy 3 beds 2 baths 1 cp apt in heart of Mel,"33 Rose Lane, 3000 Melbourne, Australia",-37.8150102,144.9540997,9.4,9.4
NEO Serviced Apartments,"620 Collins Street, 3000 Melbourne, Australia",-37.8188373,144.9543434,9.3,8.4
The Hotel Windsor,"111 Spring Street, 3000 Melbourne, Australia",-37.8120798,144.9729474,9.4,8.8
Elaine - Beyond a Room Luxury Beachside Apartments,"8-10 The Esplanade, 3182 Melbourne, Australia",-37.863606,144.972776,9.8,8.3
Complete Host Richmond Townhouse Collection,"90 Hunter Street, Richmond, 3121 Melbourne, Australia",-37.8220424,145.005,9.5,8.8
The Town Apartments,"Tattersalls Lane, 3000 Melbourne, Australia",-37.8119048,144.9656045,8.7,8.4
Raphael - Beyond a Room Private Apartments,"6 Leicester Street 115, 3053 Melbourne, Australia",-37.8060407,144.960282,9.1,8.8
Aerin - Beyond a Room Private Apartments,"238 Flinders Lane, 3000 Melbourne, Australia",-37.8165136,144.9659591,10,9
Roland - Beyond a Room Private Apartments,"339 Swanston Street, 3004 Melbourne, Australia",-37.8103818,144.9638079,9.8,9.4
Space Hotel,"380 Russell Street, 3000 Melbourne, Australia",-37.8075485,144.9661045,8.8,8.3
Catani 1 - StayCentral,"12 Acland Street, 3182 Melbourne, Australia",-37.8631723,144.9750806,9,8.1
Complete Host The River Apartments,"UG15/77 River Street, South Yarra, 3141 Melbourne, Australia",-37.8368591,144.9974008,9.1,8.3
"The Swanston Hotel Melbourne, Grand Mercure","195 Swanston Street, 3000 Melbourne, Australia",-37.8131012,144.9650043,9.2,8.3
"Luxury CBD - Pool, Gym and Spa","129 A'Beckett Street, 3000 Melbourne, Australia",-37.8098242,144.959709,8.8,8
Australian Home Away @ North Melbourne,"29 O'Connell Street, North Melbourne, 3051 Melbourne, Australia",-37.8051106,144.9576061,9.3,8.1
Donkey Kong Short Stay - The William,"199 William Street, 3000 Melbourne, Australia",-37.81456,144.9574098,9.3,8.7
MJ Shortstay Whiteman St Apartment,"63 Whiteman Street, Southbank, 3006 Melbourne, Australia",-37.8260535,144.9568461,9.9,9.2
A Cozy 2BR CBD Apartment Near Bourke St Mall,"20-26 Coromandel Place, 3000 Melbourne, Australia",-37.8130141,144.9692432,10,9
Hawthorn Wonderland Apartment,"31 Queens Avenue, 3122 Melbourne, Australia",-37.8228449,145.0443204,9.2,9.2
Espresso Apartments - Penthouse St Kilda Style,"39/220 Barkly St, 3182 Melbourne, Australia",-37.8709428,144.9807051,9.6,8.2
Melbourne CBD Harbour View Home,"Unit 3210 639 Lonsdale St, 3000 Melbourne, Australia",-37.8151005,144.9535261,10,9.7
Saint George - The Townhouse,"361 Chapel Street, South Yarra, 3141 Melbourne, Australia",-37.8462839,144.9940261,8.8,8.3
Melbourne Central YHA,"562 Flinders Street, 3000 Melbourne, Australia",-37.8206438,144.9556165,9.1,8.3
Espresso Apartments - St Kilda penthouse with panoramic Bay and City views,"350 Beaconsfield Parade, 3182 Melbourne, Australia",-37.8595997,144.971703,9.3,8
Ocean Views  Top Location  Parking  Restaurants,"101 Saint Kilda Road, 3182 Melbourne, Australia",-37.8597673,144.9836167,9,9.2
Hanna - Beyond a Room Private Apartments,"32 Bourke St, 3000 Melbourne, Australia",-37.811442,144.9720127,9.6,8.9
SmartStay Melbourne,"22 Chapel St, Windsor, 3181 Melbourne, Australia",-37.856817,144.992603,8.7,8.1
Star Wars Suite,"117/68 Leveson Street, North Melbourne, 3051 Melbourne, Australia",-37.8024072,144.9515043,8.9,8.8
Complete Host Monarc Apartments,"74 Queens Road 1210, Albert Park, 3004 Melbourne, Australia",-37.8522389,144.9795127,9.1,8.9
"New ,COZY,Modern Apartment with Cityscape Views","568 Collins Street, 3000 Melbourne, Australia",-37.8183759,144.9554361,9.6,8
SSP - C/M,"7 Claremont Street, South Yarra, 3141 Melbourne, Australia",-37.838188,144.993552,9.6,9.4
MH Private Apartments @ The William,"199 William Street, 3000 Melbourne, Australia",-37.81456,144.9574098,9.7,9
Complete Host Tiara Apartments,"50 Haig Street, Southbank, 3006 Melbourne, Australia",-37.826844,144.9568385,9.4,9
Not Far From Airport & City,"3 Lex Grove 4, 3046 Melbourne, Australia",-37.718179,144.926048,8.3,8.5
Beachside Port Melbourne,"502/127 Beach Street, 3207 Melbourne, Australia",-37.840251,144.928536,9.9,9.8
Swanston - 2 Bedroom Aptm,"555 Swanston Street, Carlton, 3053 Melbourne, Australia",-37.8057442,144.9627896,9.5,8.9
CBD heart 2BR+1BA APT with free gym and pool,"Elizabeth Street u3007/462, 3000 Melbourne, Australia",-37.8090217,144.9608512,9.2,9.3
Studio on Park Street,"52 Park Street 816, South Melbourne, 3205 Melbourne, Australia",-37.832673,144.969083,9.5,9.2
"Lakeside Crescent Townhouse, Keilor East","24 Lakeside Crescent, 3033 Melbourne, Australia",-37.7391479,144.8760766,8.3,8.3
MJ Shortstay Southbank Grande Apartment,"151 City Road, Southbank, 3006 Melbourne, Australia",-37.8237063,144.9630994,9.3,9
Serviced Apartments Melbourne - Australia 108,"70 Southbank Boulevard, Southbank, 3006 Melbourne, Australia",-37.8232421,144.9640661,8.9,8.5
Crown Promenade Melbourne,"8 Whiteman Street, Southbank, 3006 Melbourne, Australia",-37.8234367,144.9580861,9.3,8.9
Espresso Apartments - Port Melbourne Executive Living,"G10/70 Nott St, 3207 Melbourne, Australia",-37.8403865,144.9391183,8.5,8
Melbourne Luxury Paradise,"120 Sturt Street, Southbank, Southbank, 3006 Melbourne, Australia",-37.8248504,144.9667038,9.7,8.9
Position Perfect Armadale,"11 Kooyong Road, 3143 Melbourne, Australia",-37.861597,145.019436,8.8,8.7
Vibe Hotel Carlton Melbourne,"441 Royal Parade, Parkville, 3070 Melbourne, Australia",-37.7829895,144.9588174,8.6,8.2
Royce Hotel,"379 St Kilda Rd, 3004 Melbourne, Australia",-37.8350802,144.9753496,9,9
Centrepoint Units Heidelberg,"75 Hawdon Street, 3084 Melbourne, Australia",-37.756922,145.064263,8.7,8.6
Complete Host Wrap Apartments,"133 City Road, Southbank, 3006 Melbourne, Australia",-37.823361,144.963506,9.4,9.2
Vance - Beyond a Room Private Apartments,"398 La Trobe Street, Melbourne, 3000 Melbourne, Australia",-37.8107887,144.9576989,9,8.7
The Savoy Hotel on Little Collins Melbourne,"630 Little Collins Street, 3000 Melbourne, Australia",-37.8178443,144.9540135,9.3,8.8
HugoHome@Southern Cross Station,"33 Rose Lane Manhanttan, 3000 Melbourne, Australia",-37.8150372,144.9540151,8.9,8.1
Mona Lisa Milano Penthouse,"8 Franklin Street Apartment , 3000 Melbourne, Australia",-37.8074344,144.9621145,9,9.3
Andre's Mews,"89 Church Street , Richmond, 3121 Melbourne, Australia",-37.8139434,145.0002225,8.5,8.8
North Melbourne Retreat,"81 O'Shanassy Street, North Melbourne, 3051 Melbourne, Australia",-37.8002414,144.9472243,8.5,8.7
Position Perfect Richmond,"45-47 Cameron Street, Richmond, 3121 Melbourne, Australia",-37.8166125,144.9989063,10,9.7
Gem of Bundoora,"106b 1091 Plenty road, 3083 Melbourne, Australia",-37.7093519,145.0497192,9.1,9.2
Beach Front Beauty,"11 Marine Parade Unit 31, 3182 Melbourne, Australia",-37.8698643,144.9773722,9.8,9.6
IFSTAYS Blackwood Apartment,"33 Blackwood Street, North Melbourne, 3051 Melbourne, Australia",-37.800576,144.9557042,8.8,8.5
Regent On Collins,"187 Collins Street Apartment 37, 3000 Melbourne, Australia",-37.815347,144.967794,9.8,9.4
Yuki - Beyond a Room Private Apartments,"416 Saint Kilda Road, 3004 Melbourne, Australia",-37.8355934,144.9746504,8.9,8.5
Richmond Vibe - Rejuvenate Stays,"131 Kent St Richmond, Richmond, 3754 Melbourne, Australia",-37.8149121,145.005475,9.2,8.5
Amora Hotel Riverwalk,"649 Bridge Road, Richmond, 3121 Melbourne, Australia",-37.8197495,145.0132556,9,8.8
Spacious apartment within minutes of Acland Street,"3182 Melbourne, Australia",-37.8595773,144.9777054,8.3,8
Hotel Claremont Guest House,"189 Toorak Road, South Yarra, 3141 Melbourne, Australia",-37.839041,144.993358,8.7,8.1
Russell - 1 Bedroom Aptm,"133 Russell Street, 3000 Melbourne, Australia",-37.8133721,144.9679842,9.7,9.6
Helio - Modern Aptm,"93 Flemington Road, North Melbourne, 3051 Melbourne, Australia",-37.7985352,144.9529454,9.1,9.2
City Centre Budget Hotel,"22 Little Collins Street, 3000 Melbourne, Australia",-37.8124139,144.9726027,9,8
Captain Homes -Clarendon St Southbank Face Crown,"105 Clarendon Street, Southbank, Southbank, 3006 Melbourne, Australia",-37.827096,144.9581235,8.9,8.9
The Prince,"2 Acland Street, 3182 Melbourne, Australia",-37.8622125,144.9740264,9.2,8.7
Mantra on Jolimont,"133 Jolimont Road, East Melbourne, 3002 Melbourne, Australia",-37.818018,144.9783418,8.7,8.1
Yarra House,"101 Yarra Bend Road, 3078 Melbourne, Australia",-37.7875839,145.0114222,7.5,8.2
Espresso Apartments - Mitford St Elwood Lifestyle,"3/79 Mitford St, Elwood, 3184 Melbourne, Australia",-37.876758,144.9844513,8.8,8.4
Apartments On The Fifth,"605 Lonsdale Street 4402, 3000 Melbourne, Australia",-37.814929,144.954241,8.8,8.1
Readyset on Spencer,"200 Spencer Street, 3000 Melbourne, Australia",-37.816228,144.9532465,9.2,7.9
"Murray, Deluxe Fitzroy Apartments","181 Smith Street, Fitzroy, 3065 Melbourne, Australia",-37.8038124,144.9832273,9.8,9.5
Miami Hotel Melbourne,"13 Hawke Street, West Melbourne, 3003 Melbourne, Australia",-37.8061578,144.9485792,8.3,8.6
Manhattan Apartment Uptown,"33 Rose Lane, 3000 Melbourne, Australia",-37.8150102,144.9540997,9.7,9.3
Brand new apt at the heart of South Melbourne,"89 Gladstone St South Melbourne Vic 3205 203, South Melbourne, 3205 Melbourne, Australia",-37.8301088,144.9499001,8.6,8.8
Metro Apartments On Bank Place,"18 Bank Place, 3000 Melbourne, Australia",-37.8164352,144.9605167,8.8,8
Sweet Caroline,"1/101 Caroline Street, South Yarra, South Yarra, 3141 Melbourne, Australia",-37.8385212,144.9880364,10,9.7
"2 bedrooms CBD FREE Tram apartment (Melb Central, China Town, Queen Victoria Market, Melbourne University, RMIT, etc)","39 Lonsdale Street Unit 1301, 3000 Melbourne, Australia",-37.8099303,144.9711262,9.4,8.4
IFSTAYS Light House Victoria One - Brand New Apartment,"450 Elizabeth Street, 3000 Melbourne, Australia",-37.8082642,144.9607964,9,8
Modern Apartment in Footscray's Heart,"55 Hopkins Street, Footscray, 3011 Melbourne, Australia",-37.8006053,144.905265,8.6,8.5
Quest Carlton On Finlay,"2-9 Finlay Place, Carlton, Carlton, 3053 Melbourne, Australia",-37.803908,144.967002,8.8,8.1
Heart CBD 2BR/2BA with free parking and views,"108 Flinders Street, 3000 Melbourne, Australia",-37.81615,144.9711221,9.6,9.7
Dawn - Beyond a Room Private Apartments,"75 Drummond Street, Carlton, Carlton, 3053 Melbourne, Australia",-37.8047901,144.9672512,9.6,8.9
Stunning Luxury Apartment,"8 Kavanagh Street, Southbank, 3006 Melbourne, Australia",-37.8223443,144.9666442,10,9.8
Verve,"483 Swanston Street, 3000 Melbourne, Australia",-37.8072179,144.9623358,9.6,9.4
Tolarno Hotel,"42 Fitzroy Street, 3182 Melbourne, Australia",-37.860229,144.976074,8.9,8.5
Ace's Place,"4 Davidson Street, South Yarra, 3141 Melbourne, Australia",-37.832764,144.98887,7.9,8.5
Upper West Side - Madison,"639 Lonsdale Street 1006, 3000 Melbourne, Australia",-37.8151005,144.9535261,9.1,9.4
Morgan - Beyond a Room Private Apartments,"22 Kavanagh Street, Southbank, 3006 Melbourne, Australia",-37.8229321,144.9658885,9,8
Melbourne cbd apartment,"99 A'Beckett Street 312, 3000 Melbourne, Australia",-37.809478,144.9606924,9.7,9.4
Manhattan Apartments - Caulfield North,"466 Dandenong Road, 3161 Melbourne, Australia",-37.863766,145.0206386,9.4,9.6
St Kilda Gardens,"25 Herbert Street 1, 3182 Melbourne, Australia",-37.8721093,144.9830966,9.5,9
GRAVITY (I708)-L'Abode Accommodation,"89 Gladstone Street, South Melbourne, 3205 Melbourne, Australia",-37.8301969,144.9499557,9.2,8.8
Melbourne Metro YHA,"78 Howard Street, North Melbourne, 3051 Melbourne, Australia",-37.8030396,144.954494,8,8
Espresso Apartments - Garden Views on Herbert,"120/27-31 Herbert St, 3182 Melbourne, Australia",-37.8723102,144.9832228,8.9,8.4
Melbourne City Stays,"238 Flinders Lane, 3000 Melbourne, Australia",-37.8165136,144.9659591,9.5,8.4
studio apartment in Melbourne with free wifi,"546 Flinders Street, 3000 Melbourne, Australia",-37.8205058,144.9561717,9.2,8.4
Perfect Family Apartment in Central Melbourne,"315 La Trobe Street, 3000 Melbourne, Australia",-37.8108745,144.9599591,9.2,8.4
Society Accommodation,"30-34 Bray St, South Yarra, 3141 Melbourne, Australia",-37.8444608,144.9954419,9.5,9.6
Melbourne Central,"339 Swanston Street Unit 904, 3004 Melbourne, Australia",-37.8103818,144.9638079,10,9
Melbourne's Princes Park Hotel,"2 Sydney Road, 3056 Melbourne, Australia",-37.7553721,144.9644318,9,8.7
King Deluxe Apartments,"Lonsdale Heights Apartments 5H/131 Lonsdale Street Melbourne City , 3000 Melbourne, Australia",-37.8106567,144.9684409,9.4,8.9
Catani 3 - StayCentral,"12 Acland Street, 3182 Melbourne, Australia",-37.8631723,144.9750806,9.7,8.9
Lyall Hotel And Spa,"16 Murphy Street, South Yarra, 3141 Melbourne, Australia",-37.8379183,144.9907445,9.3,8.8
Melbourne Eureka Deluxe Apartment,"7 Riverside Quay, Southbank, 3006 Melbourne, Australia",-37.8213341,144.9646982,10,9.6
Genie - Beyond a Room Private Apartments,"25 Hotham Street, East Melbourne, 3002 Melbourne, Australia",-37.8148822,144.9895395,9,8.5
Brighton Serviced Apartments,"408 Bay St, Brighton, 3186 Melbourne, Australia",-37.9065702,145.0075304,8.8,8.3
Richmond Hill Hotel,"353 Church Street, Richmond, 3121 Melbourne, Australia",-37.8229707,144.9987497,8.8,8.1
Habitat HQ,"333 St Kilda Road, 3182 Melbourne, Australia",-37.8655848,144.9854081,8.1,8.1
Brunswick B & B,"255 Stewart Street, 3057 Melbourne, Australia",-37.7650895,144.9820743,8.6,9
Concept Blue 7 Melbourne CBD,"702/68 La Trobe St, 3000 Melbourne, Australia",-37.8083648,144.9667899,8.2,8
REdTRO House,"27 MYRTLE STREET SOUTH YARRA, South Yarra, 3141 Melbourne, Australia",-37.8398465,144.9890338,8.5,8.1
Kew Serviced Apartments,"104-106 Walpole Street, Kew, 3101 Melbourne, Australia",-37.7981886,145.0332585,8.6,8.4
Quest on Bourke,"155 Bourke Street, 3000 Melbourne, Australia",-37.8128736,144.9688316,9.3,8.4
Mercure Welcome Melbourne,"265 Little Bourke Street, 3000 Melbourne, Australia",-37.81282,144.9647544,9.2,8
The Travellers,"518 Swanston Street, Carlton, 3053 Melbourne, Australia",-37.8048062,144.9634826,8.9,8.6
"Beautiful Victorian Mansion by the Sea - 7 bedrooms, 7 bathrooms","28 Mary Street, 3205 Melbourne, Australia",-37.8203235,145.0019323,9.5,9.2
Brighton Savoy Hotel,"150 Esplanade, Brighton, 3186 Melbourne, Australia",-37.9154665,144.9875598,8.9,8.3
Quest St Kilda Road,"478 St Kilda Road, 3004 Melbourne, Australia",-37.84253,144.977028,9.2,9.2
Kimberley Gardens Hotel and Serviced Apartments,"441 Inkerman Street,, 3183 Melbourne, Australia",-37.8676987,145.0040516,8.2,8.4
Mono Apartments on Mackenzie Street,"33 Mackenzie Street, 3000 Melbourne, Australia",-37.807711,144.9669056,9.4,8.8
OMG! Luxurious New Apt in CBD,"108 Flinders Street, 3000 Melbourne, Australia",-37.81615,144.9711221,10,9.9
CitiClub Hotel Melbourne,"113 Queen Street, 3000 Melbourne, Australia",-37.8157528,144.9607103,8.5,7.9
Canvas Suites on Downie,"8 Downie Street, 3000 Melbourne, Australia",-37.8203662,144.9559713,9.4,8.9
Quest NewQuay,"26 Caravel Lane, Docklands, 3008 Melbourne, Australia",-37.8142446,144.9410111,8.8,8.5
Seaside Home,"35 Shelley Street, Elwood, Elwood, 3184 Melbourne, Australia",-37.881047,144.983947,8.9,9.1
BreakFree on Collins,"6/233 Collins Street, 3000 Melbourne, Australia",-37.8160036,144.9661659,9.3,8.1
Best View St Kilda 1 BR - Spectacular Sunset Hideaway,"33/ 149 Fitzroy Street Saint Kilda, 3182 Melbourne, Australia",-37.8592459,144.9787166,9.8,9.8
ibis Budget - Melbourne CBD,"97-103 Elizabeth Street, 3000 Melbourne, Australia",-37.815917,144.963641,9.1,8
North Melbourne Lifestyle Stays,"108 Munster Terrace, North Melbourne, 3051 Melbourne, Australia",-37.8006836,144.9433183,9.1,9.5
ocean view apartment near crown in CBD,"105 Clarendon Street, Southbank, 3006 Melbourne, Australia",-37.827096,144.9581235,9.5,8.4
Quest East Melbourne,"48 Wellington Parade,, East Melbourne, 3002 Melbourne, Australia",-37.8165941,144.9886142,9,8.5
Manallack Apartments Olley,"2 Manallack Street, 3056 Melbourne, Australia",-37.7736975,144.9602156,9.2,8.4
Hub Hostel,"139-149 Flemington Road, North Melbourne, 3051 Melbourne, Australia",-37.7961372,144.9500018,8.2,8.7
"Espresso Apartments - Class, Style & Location in Carlton","463 Cardigan St, Carlton, 3053 Melbourne, Australia",-37.7945349,144.9662306,10,10
Hotel 115,"115 Cotham Road, Kew, 3101 Melbourne, Australia",-37.8077537,145.0391871,8.6,8.8
Melbourne Airport Motel,"123 Mickleham Road, Tullamarine, 3043 Melbourne, Australia",-37.6944701,144.8806698,9.5,9.4
Heart Location 2BR with free parking and views,"568 Collins Street Unit 4802, 3000 Melbourne, Australia",-37.8183759,144.9554361,9.8,9.5
Readyset Studios on Anthony,"9 Anthony St, 3000 Melbourne, Australia",-37.8092581,144.9589178,8.4,8
Espresso Apartments - Bold and Beautiful in Brighton,"8/26 Outer Crescent, Brighton, 3186 Melbourne, Australia",-37.9056816,144.9992556,8.8,8.3
Pleasant City Stay on Collins,"233 Collins Street 809, 3000 Melbourne, Australia",-37.8160036,144.9661659,10,9.6
"Boutique Stays - Seventh Street, House in Parkdale","27B Seventh Street, Parkdale 3195, 3195 Melbourne, Australia",-37.989023,145.076465,9.2,9.6
New CBD Apartment With Harbour View Balcony near Southern Cross Station,"2604/618 Lonsdale Street, 3000 Melbourne, Australia",-37.8143198,144.9539133,10,9.7
Deco Family House,"1496 Malvern Road, 3146 Melbourne, Australia",-37.8540737,145.0478133,8.6,8.8
Waratah Stay - A boutique experience,"41 Acland Street, 3182 Melbourne, Australia",-37.864566,144.975606,9.4,8.9
Canvas Suites on A'beckett,"31 Abeckett Street, 3000 Melbourne, Australia",-37.8089881,144.9625703,9.4,8.8
Deluxe and Brand New Lakeside Apartment,"77 Queens Road, Albert Park, 3004 Melbourne, Australia",-37.8527132,144.9797278,8.8,8.2
Wyndham Hotel Melbourne,"199 William Street, 3000 Melbourne, Australia",-37.81456,144.9574098,8.9,8.6
Exclusive Luxury 2BR Astonishing CBD Sight@Top54th,"35 Queensbridge Street, Southbank, 3006 Melbourne, Australia",-37.8229418,144.9613557,9.5,7.9
Adara Brunswick,"343 Sydney Road Brunswick, 3056 Melbourne, Australia",-37.7695147,144.961474,9.1,9.1
Brighton Bay Apartments,"197 Bay Street, Brighton, 3186 Melbourne, Australia",-37.9045903,144.9988313,9.1,9
MJ Shortstay Apartments - Platinum Tower,"45 Clarke Street, Southbank, 3006 Melbourne, Australia",-37.826888,144.9593789,9.1,8.6
Espresso Apartments - Executive Living in Caulfield,"201/464 Hawthorn Rd, 3162 Melbourne, Australia",-37.8934125,145.020534,9.2,8.5
Deluxe 2BR Residence in Melb CBD,"199 William Street, 3000 Melbourne, Australia",-37.81456,144.9574098,9.2,8.1
Bellamama's @ St Kilda,"233 Canterbury Road Unit 5, 3182 Melbourne, Australia",-37.85915,144.976195,9.4,9
Modern Cosy 2BR Apt Next to Beach!,"174 Esplanade East, 3207 Melbourne, Australia",-37.8433389,144.9429015,9.2,8.8
Complete Host 50 Claremont St Apartments,"50 Claremont Street, South Yarra, 3141 Melbourne, Australia",-37.8364447,144.9943596,9.2,8
Arden Motel,"15 Arden Street, North Melbourne, 3051 Melbourne, Australia",-37.8013498,144.9520307,8.9,8.4
Bell Motel,"2 Patterson Street, Preston, Preston, 3072 Melbourne, Australia",-37.7454831,145.0103751,8.6,8.6
Espresso Apartments - Glen Iris Executive Apartment,"204/220 Burke Rd, 3146 Melbourne, Australia",-37.855207,145.052318,8.9,8.9
NOTEL,"Harper Lane Melbourne, 3000 Melbourne, Australia",-37.8181921,144.9610307,8.6,8.3
Heart of CBD Penthouse Apartment,"222 Russell St, 3000 Melbourne, Australia",-37.8112936,144.9678227,9.2,8.5
Exclusive Stays - Gallery Penthouse,"33 City Road, Southbank, 3006 Melbourne, Australia",-37.8216222,144.9668458,9.5,9.4
Airport Tourist Village Melbourne,"37 Ardlie Street, , Tullamarine, 3049 Melbourne, Australia",-37.6731279,144.8853998,8.9,8.9
brand new stunning home with garden,"211 BAY STREET G16, Brighton, 3186 Melbourne, Australia",-37.9048482,144.9990725,9.4,8.2
Art Series - The Larwill Studio,"48 Flemington Road, North Melbourne, 3052 Melbourne, Australia",-37.7949609,144.9497837,8.9,9.2
Quest Brighton on the Bay,"250 Esplanade, Brighton, 3186 Melbourne, Australia",-37.909352,144.9867125,8.7,8.3
LOCATED IN THE HEART OF RICHMOND - just off Swan St,"56 Stanley Street, Richmond, 3121 Melbourne, Australia",-37.824856,144.994379,10,8.6
south point,"22 Kavanagh Street, Southbank, 3006 Melbourne, Australia",-37.8229321,144.9658885,9.5,8.7
Abode by Easystay,"63 Fitzroy Street, St Kilda, 3182 Melbourne, Australia",-37.8611337,144.9755755,8.4,8.4
STK - 1 Bedroom Aptm,"5 Saint Kilda Road, 3182 Melbourne, Australia",-37.8588763,144.9833849,8.6,8.4
"Istana 10, Melbourne CBD","1016/228 Abeckett St, 3000 Melbourne, Australia",-37.8101911,144.9566043,9.3,8.2
Federation Square Apartments,"238 Flinders Street, 3000 Melbourne, Australia",-37.8173927,144.9663866,9.6,9.2
Stylish Aptm @ SouthYarra,"35 Malcolm Street, South Yarra, 3141 Melbourne, Australia",-37.8371379,144.996434,9.3,8.9
Albert Heights Serviced Apartments,"83 Albert Street, East Melbourne, 3002 Melbourne, Australia",-37.810813,144.9852404,9,8.3
Melbourne Star Apartment Docklands,"421 Docklands Drive, Docklands, 3008 Melbourne, Australia",-37.8143667,144.9395017,9.2,8.7
Santeri - Beyond a Room Private Apartments,"80 A'beckett Street, 3000 Melbourne, Australia",-37.8090372,144.9610905,9.3,9.1
ibis Melbourne - Little Bourke Street,"600 Little Bourke Street, 3000 Melbourne, Australia",-37.8153272,144.9545155,8.8,8.3
Collins St Melbourne CBD - 2 Bedroom Apartment with balcony,"233 Collins St 710, 3000 Melbourne, Australia",-37.8160036,144.9661659,9.9,8
Parkville Motel,"759 Park Street, 3056 Melbourne, Australia",-37.7772463,144.9564729,8.7,8
UWS Hudson Melbourne CBD Apartment,"220 Spencer Street, 3000 Melbourne, Australia",-37.8156694,144.952988,9.4,8.8
Birches Serviced Apartments,"160 Simpson Street, East Melbourne, 3002 Melbourne, Australia",-37.8106589,144.9890876,8.8,8.3
HugoHome Designed Suites@Southern Cross,"220 Spencer Street, 3000 Melbourne, Australia",-37.8156694,144.952988,10,8.7
Southbank Cozy 2 Bedroom Apartment with Bay View,"63 Haig Street, Southbank, 3006 Melbourne, Australia",-37.8276686,144.9566961,8.8,8.1
The Bella in Southbank Melbourne 2BD High Floor-2,"250 City Road, Southbank, 3006 Melbourne, Australia",-37.8257579,144.9595488,9.3,8.1
Alston Apartments Hotel,"138 Elgin Street, Carlton, 3053 Melbourne, Australia",-37.797191,144.9697336,8.8,8.3
Townhouse with everything at your doorstep,"17B Gillingham Street, Preston, 3072 Melbourne, Australia",-37.750763,144.9923708,9.4,9.6
Leopold 615 on St Kilda Road,"Unit 615 Leopold, 3004 Melbourne, Australia",-37.8414739,144.9768468,9.5,8.5
Espresso Apartments - Classy Central Caulfield,"103/490 Dandenong Rd, 3162 Melbourne, Australia",-37.864508,145.022632,9.2,8.4
Gravity Tower,"89 Gladstone Street 704, South Melbourne, 3205 Melbourne, Australia",-37.8301088,144.9499001,9.5,9.7
Southbank CityView 2BR Apartment on Clarendon,"105 Clarendon Street Unit 2712, Southbank, 3006 Melbourne, Australia",-37.827096,144.9581235,9,8.1
Panoramic View + Netflix,"1303S/889 Collins Street Docklands, Docklands, 3008 Melbourne, Australia",-37.8208882,144.9416138,9.6,9.3
ICON Penthouse Apartment,"6 St Kilda rd St Kilda, 3184 Melbourne, Australia",-37.8566873,144.9834374,9.4,9.3
Melbourne Beachside Apartment,"180 Barkly Street, 3182 Melbourne, Australia",-37.8684097,144.9811826,9.5,9.7
Homely Getaways at 429 Spencer,"429 Spencer Street, West Melbourne, 3003 Melbourne, Australia",-37.8105667,144.9499557,9,8.8
Summer s Holiday Inn,"494 Victoria Street, North Melbourne, 3051 Melbourne, Australia",-37.8049933,144.949859,9.1,9.2
Art Series - The Blackman,"452 St Kilda Road, 3000 Melbourne, Australia",-37.8389506,144.9759412,8.9,9
Canvas Suites on William,"350 William Street, 3000 Melbourne, Australia",-37.8112464,144.9566068,9.6,9.2
Espresso Apartments - Smart Caulfield Townhouse,"2/15 Marara Rd, 3162 Melbourne, Australia",-37.896634,145.03014,9.5,9.2
The Glenferrie Hotel Hawthorn,"324 Burwood Road, 3122 Melbourne, Australia",-37.8227474,145.0345455,9.1,8.8
Close To Shops Airport & City,"47 Hamilton Street 9, 3042 Melbourne, Australia",-37.739764,144.885082,8.7,9.2
Nook Melbourne Apartments,"173 City Road, Southbank, 3006 Melbourne, Australia",-37.824628,144.9623452,8.9,8.8
Clarendon Hotel Melbourne,"209-215 Clarendon Street, South Melbourne, 3205 Melbourne, Australia",-37.830914,144.9598788,9.1,8.8
Luxuria Apartments - Fulton Lane,"155 Franklin Street, 3000 Melbourne, Australia",-37.8088259,144.9595488,10,9.9
Espresso Apartments - Brighton Beach Bayside Beauty,"6/32 Bay St, Brighton, 3186 Melbourne, Australia",-37.903916,144.988048,8.9,8.9
Darlington Serviced Apartments - 40 Hall,"40 Hall Street 607, 3039 Melbourne, Australia",-37.7658922,144.9206563,9.4,9.5
Melbourne Airport Home,"47 Nepean St, 3047 Melbourne, Australia",-37.6873724,144.9276121,7.6,8.3
Como Court (Budget) by Crest Hotels,"53 Barkly Street, 3182 Melbourne, Australia",-37.859149,144.982458,8.3,8.1
Sturt - 2 Bedroom Aptm,"152 Sturt Street, Southbank, 3006 Melbourne, Australia",-37.8254394,144.9659161,8.7,9.1
Exclusive Stays - Rivergarden,"79 Whiteman Street, Southbank, 3006 Melbourne, Australia",-37.8265664,144.9562363,9.1,8.9
Greswell Villa,"17 Grange Blvd, 3083 Melbourne, Australia",-37.713007,145.05556,8.1,8.1
Quiet Laneway Apartment Near Bourke St Mall,"18 Russell Place, 3000 Melbourne, Australia",-37.8134924,144.9673838,10,9.9
Bay/Sunset View Apt on Collins,"568 Collins Street, 3000 Melbourne, Australia",-37.8183759,144.9554361,10,9.2
Canvas Suites on Flinders,"560 Flinders Street, 3000 Melbourne, Australia",-37.8206319,144.9557428,8.8,8.7
EPIC Apartments,"1109 / 118 Kavanagh Street, Southbank, 3006 Melbourne, Australia",-37.8253868,144.962001,9.7,9.5
Designer living 2BD with rooftop deck in CBD,"Carlton, 3053 Melbourne, Australia",-37.798389,144.9694441,9.5,8.6
Essence of Degraves - Rejuvenate Stays,"9 Degraves St, 3000 Melbourne, Australia",-37.8177641,144.9656475,9.8,8
Modern Docklands Apartment in CBD,"888 Collins Street, Docklands, 3008 Melbourne, Australia",-37.8205169,144.9422993,8.3,8.4
Coppersmith Hotel,"435 Clarendon St, South Melbourne, South Melbourne, 3205 Melbourne, Australia",-37.8378178,144.963098,9,9.1
Sub Penthouse on Barkly Street,"802/250 Barkly Street, Footscray, 3011 Melbourne, Australia",-37.7990654,144.8960744,8.9,9.8
Melbourne Villa,"58 Mount Street, 3084 Melbourne, Australia",-37.757914,145.062103,9.6,9.3
Quest Bundoora,"40 Janefield Drive, Bundoora, 3083 Melbourne, Australia",-37.6823141,145.0735874,8.7,8.6
Readyset on Franklin,"243 Franklin Street, 3000 Melbourne, Australia",-37.8095502,144.9566201,8.8,8.3
River - Beyond a Room Private Apartments,"565 Flinders Street, Melbourne, 3000 Melbourne, Australia",-37.8211278,144.9558983,9.1,8.8
Naughtons Hotel,"43 Royal Parade, North Melbourne, 3052 Melbourne, Australia",-37.7955846,144.9576146,9.1,8.9
ROOF DECK  BEACH  ST KILDA,"9/47 Fitzroy Street, St Kilda, 3182 Melbourne, Australia",-37.861456,144.9750865,9.3,8.5
Daystt Apartments Southbank,"Unit 3006, 70 Southbank Blvd, Southbank, 3006 Melbourne, Australia",-37.8232421,144.9640661,9.1,8.8
Elizabethan Lodge,"604-610 Middleborough Rd, 3130 Melbourne, Australia",-37.7996374,145.1425043,8.2,8.2
Apartments on Chapman,"76 Chapman Street, North Melbourne, 3051 Melbourne, Australia",-37.7954221,144.9477502,8.9,8.5
Central & quiet Homestay in Fitzroy,"1 Charles Place, Fitzroy , Fitzroy, 3065 Melbourne, Australia",-37.8030719,144.9830495,8.8,8.8
 Water View @ Southbank  1BR+PARKING+WIFI,"Unit 3004, 57/61 City Road, Southbank, 3006 Melbourne, Australia",-37.8221297,144.9659786,10,8.6
No 96,"96 Polaris Drive Doncaster East, 3109 Melbourne, Australia",-37.778948,145.174371,7.8,9
St Kilda Stays - Beach House on Grey,"92 Grey St, 3182 Melbourne, Australia",-37.8632631,144.9810382,8.7,8
Great Southbank apartment with stunning view,"61 Haig Street 2103, Southbank, 3006 Melbourne, Australia",-37.8276686,144.9566961,8.8,8.4
Fantastic double suite,"26 Southgate Avenue, Southbank, 3006 Melbourne, Australia",-37.8204479,144.9671207,10,10
Lovely older home,"20 windsor st footscray, Footscray, 3011 Melbourne, Australia",-37.8009843,144.891752,9,8.7
Lovely Southbank apartment close to everything,"61 Haig Street 1603, Southbank, 3006 Melbourne, Australia",-37.8276686,144.9566961,9.7,9.1
AML Apartment,"25 Wills Street , 3000 Melbourne, Australia",-37.8107426,144.956997,9.4,9.4
UWS Madison Melbourne CBD Apartment,"639 Lonsdale Street, 3000 Melbourne, Australia",-37.8151005,144.9535261,9.3,8.4
Cosy Southbank apartment with great view,"61 Haig Street, Southbank, 3006 Melbourne, Australia",-37.8276686,144.9566961,10,9.8
Canvas Suites on La Trobe,"68 La Trobe Street, Unit 802, 3000 Melbourne, Australia",-37.8083648,144.9667899,9.2,8.7
Quest Ivanhoe,"72-84 Upper Heidelberg Road, 3079 Melbourne, Australia",-37.7702138,145.0417118,8.7,8.4
Hiigh Apartments,"153B High St, , Prahran, 3181 Melbourne, Australia",-37.8515137,144.9924229,9.3,8.7
Comforto Home,"220 Spencer St, 3000 Melbourne, Australia",-37.8156694,144.952988,9.4,8.6
Best Western Fawkner Suites & Serviced Apartments,"1162-1164 Sydney Road , Fawkner, 3060 Melbourne, Australia",-37.710631,144.961855,8.4,9
Exclusive Stays - The Summit,"163 City Road, Southbank, 3006 Melbourne, Australia",-37.8243289,144.9626463,9.5,9.1
Exclusive Stays - Yarra Condos,"38 Kavanagh Street, Southbank, 3006 Melbourne, Australia",-37.8235487,144.9643242,8.9,8.9
Sixty Two On Grey Serviced Apartments,"62 Grey Street, 3182 Melbourne, Australia",-37.8618069,144.9797063,8.3,8.1
HFN St Kilda Icon Apartment,"6 St Kild RD St Kilda 1702, 3000 Melbourne, Australia",-37.8566873,144.9834374,8.7,8.3
Victoria One Melbourne Onelife Apartments,"Unit 6702, 462 Elizabeth St, 3000 Melbourne, Australia",-37.8078248,144.9605737,9.2,8.3
BIG4 Melbourne Holiday Park,"265 Elizabeth Street, Coburg, 3058 Melbourne, Australia",-37.7227759,144.9847727,8.5,8.7
Bay View Retro Collector's Aprtment on Collins,"568 Collins Street 2908, 3000 Melbourne, Australia",-37.8183759,144.9554361,9.2,8.9
Exclusive Stays - The Century,"14 Kavanagh Street, Southbank, 3006 Melbourne, Australia",-37.8226046,144.9662699,9.2,8.5
Clean & peaceful place close to city,"250 Barkly Street, Footscray, 3011 Melbourne, Australia",-37.7990654,144.8960744,8.6,8.8
Mt Cooper Inn,"Unit 6 1191 Plenty Rd, 3083 Melbourne, Australia",-37.7033139,145.0558945,8.6,9.2
A Trendy Brighton Jewel,"6 matthews court, 3187 Melbourne, Australia",-37.9100566,145.016678,7.5,8.8
Mail Mail Home,"38 Rose Lane 605 lonsdale st, 3000 Melbourne, Australia",-37.8148892,144.9542038,8.9,8.4
Waterbed Port Melbourne room,"124 Ingles Street, 3207 Melbourne, Australia",-37.8326388,144.9460943,8.8,9.3
Canvas Suites on Wills,"25 Wills Street, 3000 Melbourne, Australia",-37.8107426,144.956997,9.3,9.3
Your Home Away from Home,"185 Orrong Road, 3183 Melbourne, Australia",-37.8749518,145.0075959,9.3,9.5
The Anderson - Rejuvenate Stays,"3/11a Anderson St, Albert Park, 3205 Melbourne, Australia",-37.840329,144.960312,8.8,8.1
Quest Kew,"19 Walpole Street, Kew, 3101 Melbourne, Australia",-37.8055545,145.0313808,9.1,8.6
The Dan,"3 Ridge Road, 3791 Melbourne, Australia",-37.902211,145.398152,9,8.9
City Views apartments,"555 Flinders Street, 3000 Melbourne, Australia",-37.820969,144.9564872,8.9,8.7
Federation Square Apartments - Breathtaking View,"238 Flinders Street Apartment 1303, 3000 Melbourne, Australia",-37.8173927,144.9663866,9.9,9.6
Exquisite Apartments Docklands by TWIG,"39 Caravel Lane, Docklands, 3008 Melbourne, Australia",-37.8147514,144.9407958,9.3,8.8
"Zelda, Beyond a Room Private Apartments","20-22 McKillop St, Apartment 602, 3000 Melbourne, Australia",-37.815111,144.9618289,9.5,9.5
Trendy 6 Star apartment with amenities to match(1),"555 Saint Kilda Road, Prahran, 3004 Melbourne, Australia",-37.8470517,144.9806745,9.8,9.7
Heart of CBD 2 Bedroom Comfy Apartment@Avant,"60 A'Beckett Street, 3004 Melbourne, Australia",-37.8088802,144.9614851,8.5,8.8
"50 meters to the beach, transport and restaurants","11/9 Wilton Grove, Elwood, 3184 Melbourne, Australia",-37.882766,144.980176,9.5,9.4
Close To All,"Unit 106, 565 Flinders Street, 3000 Melbourne, Australia",-37.8211278,144.9558983,9.9,9.4
Camberwell Vacation Apartment,"828 Burke Road, Apt. 2.21, Camberwell, 3124 Melbourne, Australia",-37.821798,145.058718,8.8,8.9
East Brunswick Hotel,"280 Lygon Street, 3057 Melbourne, Australia",-37.769859,144.9724129,9,9
Exclusive Stays - Wrap,"68 Fawkner Street, Southbank, Southbank, 3006 Melbourne, Australia",-37.8234486,144.963957,8.8,8.4
Australian Home Away @ Richmond,"9 Egan Street Richmond, Richmond, 3121 Melbourne, Australia",-37.8136448,144.9915407,8.5,8.2
"Brunswick Getaway, close to bars, rest & Cafes","122 Blyth Street, 3056 Melbourne, Australia",-37.76662,144.971693,9.4,8.9
Fantastic Southbank Apartment,"309/39 Coventry Street, South Melbourne, 3006 Melbourne, Australia",-37.8294694,144.9691814,9.3,9.6
Exclusive Stays - The Centurion,"83 Whiteman Street, Southbank, 3006 Melbourne, Australia",-37.8270114,144.9559351,8.8,8
Hollywood Style CBD 2 Bed 2 Bath Apt@Trillium,"36 La Trobe Street, 3000 Melbourne, Australia",-37.8082574,144.9676359,8.3,7.9
"Hotel Style Apartment with Huge Balcony, Bars, Rest, Cafes & Woolies at ur Door","808 Sydney Road 120, 3056 Melbourne, Australia",-37.7577937,144.96398,10,9.6
Hume Villa Motor Inn,"1324 Sydney Road, 3060 Melbourne, Australia",-37.6966829,144.9597209,8.2,8.2
Exclusive Stays - Sentinel,"88 Kavanagh St, Southbank, Southbank, 3006 Melbourne, Australia",-37.8247596,144.9629475,9.2,8.9
Landing Pads Richmond,"153 Hoddle Street Richmond, East Melbourne, 3121 Melbourne, Australia",-37.8154828,144.9906115,9.5,8.9
International 2 bed 2 bath apartment,"Haig Street 63, Southbank, 3006 Melbourne, Australia",-37.8276686,144.9566961,9.4,8.5
Exclusive Stays - Southpoint,"22 Kavanagh Street, Southbank, 3006 Melbourne, Australia",-37.8229321,144.9658885,9.6,8.9
River View 2Bed APT+FREE CAR SPACE Mins to Mel CBD,"883 Collins Street, Docklands, 3008 Melbourne, Australia",-37.8211211,144.9425286,9,8.1
"Warehouse Apartment + Netflix, Games Room and Sauna","26 Albert Street, 3057 Melbourne, Australia",-37.7708367,144.978523,9,8.2
Turnkey Accommodation ®π Victoria Harbour Docklands,"888 Collins Street, Dockland, Melbourne, Victoria, Australia, Docklands, 3008 Melbourne, Australia",-37.8205169,144.9422993,10,9.9
Exclusive Stays - Southgate,"28 Southgate Avenue, Southbank, 3006 Melbourne, Australia",-37.8206451,144.967594,10,9.2
Brunswick Luxury,"408/808 Sydney road, 3056 Melbourne, Australia",-37.7577937,144.96398,9.5,9.4
 Docklands Harbour  Modern Apartment,"883 Collins Street, Docklands, 3008 Melbourne, Australia",-37.8211211,144.9425286,8,8.2
Austin Rise Bed and Breakfast,"5 Quinn street ,Heidelberg, 3084 Melbourne, Australia",-37.752132,145.07113,9.2,9.5
Habitat Complex,"58 Clarke Street, Southbank, 3006 Melbourne, Australia",-37.8278376,144.9593337,9.1,8.2
Elm Apartment,"1511/ 22 Dorcas Street , South Melbourne, 3006 Melbourne, Australia",-37.8300237,144.9695301,8.4,8.1
Exclusive Stays - SXY,"12 Yarra Street, South Yarra, 3141 Melbourne, Australia",-37.8369806,144.9930644,8.7,8.8
Exclusive Stays - Gallery Tower,"33 City Road, Southbank, 3006 Melbourne, Australia",-37.8216222,144.9668458,9.4,9.2
Hume House,"17 Hume Road Springvale South, 3172 Melbourne, Australia",-37.966422,145.146002,8.3,8.4
Stunning Cozy Home,"7 Passfield Street, 3055 Melbourne, Australia",-37.768021,144.940777,8.6,8.9